"address","lat","long"
"CR 46 115 7 MEDELLIN , Colombia",6.30163999102155,-75.5487200410798
"CL 43 B 120 48 MEDELLIN , Colombia",6.25847000454482,-75.6272400336467
"CL 52 71 60 MEDELLIN , Colombia",6.26067000267128,-75.586619989754
"CR 92 40 43 MEDELLIN , Colombia",6.25234999985078,-75.6104499919389
"CL 51 74 53 CONJUNTO RESIDENCIAL AIRES DE VALENCIA MEDELLIN , Colombia",6.24589000000003,-75.5745699999999
"CL 34 C 89 28 MEDELLIN , Colombia",6.24438999977167,-75.6174300218082
"CL 68 B 87 27 MEDELLIN , Colombia",6.27900206380808,-75.5946574224009
"CL 34 C 89 38 MEDELLIN , Colombia",6.24441469014473,-75.61743089604
"CL 34 C 89 38 MEDELLIN , Colombia",6.24441469014473,-75.61743089604
"CR 76 53 90 URBANIZACION FUENTE DE COLORES MEDELLIN , Colombia",6.26406999596584,-75.5892400050486
"AV 74 B 39 21 MEDELLIN , Colombia",6.24547431601047,-75.596636126511
"CL 63 80 A 40 CRUCERO DE LA 80 MEDELLIN , Colombia",6.27349279409935,-75.5939096899897
"CR 76 A 53 215 URBANIZACION PLAZA DE COLORES MEDELLIN , Colombia",6.26562999387534,-75.5895199606146
"CL 51 74 53 MEDELLIN , Colombia",6.26717934185053,-75.6304597838253
"CR 76 53 200 CONJUNTO RESIDENCIAL CERRO NORTE MEDELLIN , Colombia",6.26508001529848,-75.5886199956707
"CL 49 E 83 A 196 MEDELLIN , Colombia",6.2640300142877,-75.6028300037621
"CR 97 47 A 112 MEDELLIN , Colombia",6.25758411953336,-75.612632574477
"CL 37 B 81 A 13 ED CACIQUE TONE MEDELLIN , Colombia",6.24491490019008,-75.6034619239175
"CL 37 B 81 A 13 EDIFICIO CACIQUE TONE MEDELLIN , Colombia",6.24491490019008,-75.6034619239175
"CL 52 71 60 URB PORTOVELHO DE LOS COLORES MEDELLIN , Colombia",6.264689491072,-75.5949741273954
"CR 76 53 89 URBANIZACION  PARQUE DE LOS COLORES MEDELLIN , Colombia",6.26482998312676,-75.5898900216398
"CR 76 53 90 URBANIZACION FUENTE DE COLORES PH MEDELLIN , Colombia",6.26406999596584,-75.5892400050486
"CR 81 40 50 MEDELLIN , Colombia",6.24752998642974,-75.602360030451
"CR 81 34 A 17 MEDELLIN , Colombia",6.24163998115884,-75.6029699815451
"CR 76 53 89 URBANIZACION  PARQUE DE LOS COLORES MEDELLIN , Colombia",6.26482998312676,-75.5898900216398
"CR 74 53 55 CONJUNTO INMOBILIARIO NUEVO MUNDO PH MEDELLIN , Colombia",6.26354000822806,-75.5884699596038
"CL 57 68 C 65 MULTIFAMILIAR UNIDAD CERRADA PEÑA VERDE BELLO , Colombia",6.3422829280529,-75.5740745840698
"CL 46 82 29 EDIFICIO PRIMAVERA DE LA FLORESTA PH MEDELLIN , Colombia",6.25622998283069,-75.6004399878906
"CR 74 48 37 LC 259 260 MEDELLIN , Colombia",6.25715999689753,-75.5919300092347
"CQ 73 A 38 73 MEDELLIN , Colombia",6.24287330713639,-75.5954343367329
"CR 76 53 89 MEDELLIN , Colombia",6.26482998312676,-75.5898900216398
"CR 78 B 52 14 URB RENACER MEDELLIN , Colombia",6.26462999091699,-75.5943999884624
"CL 54 78 A 52 EDIFICIO COLORES DEL SOL MEDELLIN , Colombia",6.2684197682753,-75.5939909006041
"CL 64 EE 94 B 42 MEDELLIN , Colombia",6.28228999035539,-75.6043899597621
"CL 30 A 82 A 09 MEDELLIN , Colombia",6.23184274633234,-75.6051722739894
"CL 30 A 82 A 03 MEDELLIN , Colombia",6.23178998764222,-75.6051699796716
"CR 76 A 53 35 CONJUNTO DE USO MIXTO JARDIN DE COLORES MEDELLIN , Colombia",6.26475999423525,-75.5900800393848
"CR 76 A 53 35 MEDELLIN , Colombia",6.26475999423525,-75.5900800393848
"CR 76 53 215 URBANIZACION LOS COLORES MEDELLIN , Colombia",6.2651101097169,-75.588761738344
"CL 9 B SUR 79 A 221 URBANIZACION RODEO VERDE MEDELLIN , Colombia",6.20225843192776,-75.5992790823403
"CL 9 SUR 32 310 MEDELLIN , Colombia",6.19224999388319,-75.5698099991166
"CR 76 A 53 215 URBANIZACION PLAZA DE COLORES MEDELLIN , Colombia",6.26562999387534,-75.5895199606146
"CR 72 B 82 20 MEDELLIN , Colombia",6.28247330961468,-75.5778765013513
"CR 76 53 215 URBANIZACION LOS COLORES ETAPA III MEDELLIN , Colombia",6.2651101097169,-75.588761738344
"CR 76 53 89 URBANIZACION  PARQUE DE COLORES MEDELLIN , Colombia",6.26482998312676,-75.5898900216398
"CR 70 26 A 33 UNIDAD RESIDENCIAL GAVIOTAS MEDELLIN , Colombia",6.22863289587916,-75.5913882058936
"CR 76 53 90 URBANIZACION FUENTE DE COLORES MEDELLIN , Colombia",6.26406999596584,-75.5892400050486
"CR 93 50 A 91 UNIDAD RESIDENCIAL CALASANZ AZUL PH MEDELLIN , Colombia",6.26912831495182,-75.6042182022069
"CR 75 DA 2 B SUR 320 CONJUNTO RESIDENCIAL LOS CABOS PH MEDELLIN , Colombia",6.20550999706867,-75.5993100235235
"CR 76 A 53 215 URBANIZACION PLAZA DE COLORES MEDELLIN , Colombia",6.26562999387534,-75.5895199606146
"CR 76 53 90 URBANIZACION FUENTE DE COLORES MEDELLIN , Colombia",6.26406999596584,-75.5892400050486
"CL 34 C 89 36 MEDELLIN , Colombia",6.24442998144981,-75.6174499707378
"CR 100 A 47 E 20 MEDELLIN , Colombia",6.25922999170572,-75.6152300236818
"CR 75 DA 2 B SUR 320 CONJUNTO RESIDENCIAL LOS CABOS PH MEDELLIN , Colombia",6.20550999706867,-75.5993100235235
"CR 50 27 B 151 BELLO , Colombia",6.3174234326294,-75.5571012550755
"CR 50 27 A 151 BELLO , Colombia",6.3174234326294,-75.5571012550755
"CR 50 27 B 151 BELLO , Colombia",6.3174234326294,-75.5571012550755
"CR 50 27 B 151 BELLO , Colombia",6.3174234326294,-75.5571012550755
"CL 58 57 79 BELLO , Colombia",6.34063826563254,-75.5641224844727
"CR 50 27 B 151 EDIFICIO LILIAN VILLA DALIA BELLO , Colombia",6.3174234326294,-75.5571012550755
"CR 50 27 B 151 BELLO , Colombia",6.3174234326294,-75.5571012550755
"CR 50 27 B 151 BELLO , Colombia",6.3174234326294,-75.5571012550755
"CR 50 27 B 151 BELLO , Colombia",6.3174234326294,-75.5571012550755
"CR 89 35 51 MEDELLIN , Colombia",6.24542000994339,-75.6132399922299
"CL 58 57 75 BELLO , Colombia",6.34061609585404,-75.5640978120897
"CQ 3 66 B 165 EDIFICIO NANTES MEDELLIN , Colombia",6.24468955775869,-75.5868877365648
"CL 77 AC 75 165 EDIFICIO FUENTE AZUL MEDELLIN , Colombia",6.24589000000003,-75.5745699999999
"CL 33 70 A 21 MEDELLIN , Colombia",6.26515734374565,-75.5458449225621
"CQ 3 66 B 165 EDIFICIO NANTES MEDELLIN , Colombia",6.24468955775869,-75.5868877365648
"CR 53 25 75 CONJUNTO RESIDENCIAL MANANTIALES PH BELLO , Colombia",6.20542000000006,-75.56718
"CL 63 80 A 126 MIRADOR DE LA 80 MEDELLIN , Colombia",6.27358001948967,-75.5952800044768
"CIR 3 CR 66 B 165 EDIFICIO NANTES MEDELLIN , Colombia",6.24589000000003,-75.5745699999999
"CL 52 71 60 URBANIZACION PORTOVELHO DE LOS COLORES MEDELLIN , Colombia",6.264689491072,-75.5949741273954
"CL 49 E 83 A 200 URB SOL CRECIENTE MEDELLIN , Colombia",6.26444998954629,-75.6031500248253
"CL 56 78 A 81 EDIFICIO COSTA DE MARFIL MEDELLIN , Colombia",6.26945000433803,-75.5936499757663
"CL 35 B 86 81 EDIFICIO PRIMAVERA MEDELLIN , Colombia",6.2449800019362,-75.6113099752047
"CL 78 A 67 54 LOMAS DEL PILAR MEDELLIN , Colombia",6.27521000629068,-75.5779500005664
"CIR 3 66 B 165 EDIFICIO NANTES MEDELLIN , Colombia",6.24468955775869,-75.5868877365648
"CR 76 A 53 35 CONJUNTO DE USO MIXTO JARDIN DE COLORES MEDELLIN , Colombia",6.26475999423525,-75.5900800393848
"CL 9 B SUR 79 A 221 URBANIZACION RODEO VERDE MEDELLIN , Colombia",6.20225843192776,-75.5992790823403
"CL 51 64 B 21 EDIFICIO VIVALDI MEDELLIN , Colombia",6.25582999841116,-75.5794500259587
"CL 9 B SUR 79 A 221 URBANIZACION RODEO VERDE MEDELLIN , Colombia",6.20225843192776,-75.5992790823403
"CR 76 A 53 215 URBANIZACION PLAZA DE COLORES MEDELLIN , Colombia",6.26562999387534,-75.5895199606146
"CL 51 54 30 BELLO , Colombia",6.33488482616869,-75.561989982486
"CL 51 64 B 21 EDIFICIO VIVALDI MEDELLIN , Colombia",6.25582999841116,-75.5794500259587
"CR 76 53 89 URBANIZACION  PARQUE DE LOS COLORES MEDELLIN , Colombia",6.26482998312676,-75.5898900216398
"CL 9 SUR 79 C 115 URBANIZACION ARBOLEDA DEL RODEO APARTAMENTOS MEDELLIN , Colombia",6.20785000000006,-75.59099
"CR 66 35 04 BALCONES DE SANTIAGO MEDELLIN , Colombia",6.24115001700872,-75.5853000076419
"CR 73 52 65 CONJUNTO DE USO MIXTO CAMINO DE COLORES MEDELLIN , Colombia",6.26299829472004,-75.587201048546
"CR 76 53 90 URBANIZACION FUENTE DE COLORES MEDELLIN , Colombia",6.26406999596584,-75.5892400050486
"CR 93 50 A 91 UNIDAD RESIDENCIAL CALASANZ AZUL PH MEDELLIN , Colombia",6.26912831495182,-75.6042182022069
"CR 50 27 B 145 BELLO , Colombia",6.3173486921995,-75.5571425225201
"CR 73 52 65 CONJUNTO DE USO MIXTO CAMINO DE COLORES MEDELLIN , Colombia",6.26299829472004,-75.587201048546
"CR 73 52 65 CONJUNTO DE USO MIXTO CAMINO DE COLORES MEDELLIN , Colombia",6.26299829472004,-75.587201048546
"CR 73 52 65 MEDELLIN , Colombia",6.26219001890261,-75.5878999901879
"CL 51 84 181 CONJUNTO RESIDENCIAL FARALLONES PH MEDELLIN , Colombia",6.26744620340919,-75.602096349632
"CR 79 C 45 35 CONJUNTO MULTIFAMILIAR LOS PINOS PH MEDELLIN , Colombia",6.25259000000005,-75.5997199999999
"CR 76 53 215 MEDELLIN , Colombia",6.2651101097169,-75.588761738344
"CR 75 DA 2 B SUR 320 CONJUNTO RESIDENCIAL LOS CABOS PH MEDELLIN , Colombia",6.20550999706867,-75.5993100235235
"CR 82 A 30 63 MEDELLIN , Colombia",6.23155735330996,-75.6044382791307
"CL 9 B SUR 79 A 221 URBANIZACION RODEO VERDE PH MEDELLIN , Colombia",6.20225843192776,-75.5992790823403
"CL 33 AA 81 A 41 MEDELLIN , Colombia",6.23992998909202,-75.604439999724
"CL 9 B SUR 79 A 221 URBANIZACION RODEO VERDE MEDELLIN , Colombia",6.20225843192776,-75.5992790823403
"CR 73 52 65 CONJUNTO DE USO MIXTO CAMINO DE COLORES MEDELLIN , Colombia",6.26299829472004,-75.587201048546
"CL 9 B SUR 79 A 221 URBANIZACION RODEO VERDE PH MEDELLIN , Colombia",6.20225843192776,-75.5992790823403
"CR 73 52 65 MEDELLIN , Colombia",6.26219001890261,-75.5878999901879
"CR 90 65 C 10 CONJUNTO RESIDENCIAL MIRADOR DE BARCELONA MEDELLIN , Colombia",6.27857578729551,-75.5983666700752
"CL 9 B SUR 79 A 221 URB RODEO VERDE MEDELLIN , Colombia",6.20225843192776,-75.5992790823403
"CR 75 DA 2 B SUR 320 CONJUNTO RESIDENCIAL LOS CABOS PH MEDELLIN , Colombia",6.20550999706867,-75.5993100235235
"CL 5 A 35 59 EDIFICIO CALLE 5 A PH MEDELLIN , Colombia",6.20327001726407,-75.5668299810806
"CQ 3 66 B 165 URB NANTES MEDELLIN , Colombia",6.24468955775869,-75.5868877365648
"CR 81 C 49 F 50 EDIFICIO BELOHORIZONTE MEDELLIN , Colombia",6.26388002013037,-75.5998000295832
"CR 76 53 90 URB FUENTE DE COLORES PH MEDELLIN , Colombia",6.26406999596584,-75.5892400050486
"CR 73 52 65 CONJUNTO DE USO MIXTO CAMINO DE COLORES MEDELLIN , Colombia",6.26299829472004,-75.587201048546
"CR 80 37 44 EDIFICIO JACARANDA DE LAURELES PH MEDELLIN , Colombia",6.24522001773362,-75.5999400073662
"CR 73 52 65 CONJUNTO DE USO MIXTO CAMINO DE COLORES MEDELLIN , Colombia",6.26299829472004,-75.587201048546
"CL 34 C 88 B 66 CONJUNTO RESIDENCIAL RIO CAMPESTRE PH MEDELLIN , Colombia",6.24371999234134,-75.6149700170453
"CL 63 80 A 40 UNIDAD RESIDENCIAL CRUCERO DE LA 80 MEDELLIN , Colombia",6.27349279409935,-75.5939096899897
"CR 76 A 53 35 CONJUNTO DE USO MIXTO JARDIN DE COLORES MEDELLIN , Colombia",6.26475999423525,-75.5900800393848
"CL 32 D 65 C 15 EDIFICIO SANTA MARIA LA ANTIGUA MEDELLIN , Colombia",6.23754001513009,-75.5846000349077
"CR 85 47 EE 22 MEDELLIN , Colombia",6.2570866627394,-75.6017447173742
"CL 77 AC 75 165 CONJUNTO RESIDENCIAL FUENTE AZUL PH MEDELLIN , Colombia",6.24589000000003,-75.5745699999999
"CR 75 DA 2 B SUR 320 CONJUNTO RESIDENCIAL LOS CABOS PH MEDELLIN , Colombia",6.20550999706867,-75.5993100235235
"CR 88 36 32 ED AMERICA REAL MEDELLIN , Colombia",6.24698000785288,-75.6105300391142
"CR 73 52 65 CONJUNTO DE USO MIXTO CAMINO DE COLORES MEDELLIN , Colombia",6.26299829472004,-75.587201048546
"CR 74 52 55 MEDELLIN , Colombia",6.26252001443063,-75.5891499834085
"CR 88 34 05 TORRES DE MONTELIMAR MEDELLIN , Colombia",6.24253650952248,-75.6131931373911
"CR 93 35 B 64 MEDELLIN , Colombia",6.24872000713307,-75.6146899776602
"CL 52 71 60 URBANIZACION PORTOVELHO DE LOS COLORE MEDELLIN , Colombia",6.264689491072,-75.5949741273954
"CR 83 34 A 33 MEDELLIN , Colombia",6.2423800193902,-75.6057800145847
"CL 9 B SUR 79 A 221 URBANIZACION RODEO VERDE MEDELLIN , Colombia",6.20225843192776,-75.5992790823403
"CR 29 A 5 SUR 125 CONJUNTO RESIDENCIAL URBANIZACION TIERRA CLARA MEDELLIN , Colombia",6.19269000000003,-75.56317
"CL 61 SUR 43 A 32 SERRANA APARTAMENTOS PH SABANETA , Colombia",6.15487522083996,-75.6089750712744
"CR 75 DA 2 B SUR 320 LOS CABOS PH MEDELLIN , Colombia",6.20550999706867,-75.5993100235235
"CR 84 35 62 MEDELLIN , Colombia",6.24471999529969,-75.6063000278577
"CL 50 A 96 C 165 URBANIZACION AMANECERES VIS PH MEDELLIN , Colombia",6.24589000000003,-75.5745699999999
"CL 80 SUR 47 C 61 SABANETA , Colombia",6.14796700531682,-75.6266108557231
"CL 76 80 205 CONJUNTO RESIDENCIAL TORRES DE HUNGRIA PH MEDELLIN , Colombia",6.22246000000007,-75.60318
"CL 57 68 C 65 BELLO , Colombia",6.3422829280529,-75.5740745840698
"CR 81 A 36 45 MEDELLIN , Colombia",6.24477692182214,-75.6033478846086
"CR 76 53 215 URBANIZACION LOS COLORES MEDELLIN , Colombia",6.2651101097169,-75.588761738344
"CL 49 E 83 A 200 URBANIZACION SOL CRECIENTE PH MEDELLIN , Colombia",6.26444998954629,-75.6031500248253
"CR 73 52 65 CONJUNTO DE USO MIXTO CAMINO DE COLORES MEDELLIN , Colombia",6.26299829472004,-75.587201048546
"CL 49 E 83 A 196 CONJUNTO RESIDENCIAL SOL NACIENTE PH MEDELLIN , Colombia",6.2640300142877,-75.6028300037621
"CR 81 A 37 B 22 ED JAIPERA MEDELLIN , Colombia",6.24517999414596,-75.603210039252
"CL 65 98 45 MEDELLIN , Colombia",6.28545935117877,-75.6066590456012
"CL 77 AC 75 165 CONJUNTO RESIDENCIAL FUENTE AZUL PH MEDELLIN , Colombia",6.24589000000003,-75.5745699999999
"CL 65 90 90 URBANIZACION PENINSULA CONDOMINIO PH MEDELLIN , Colombia",6.27996000000007,-75.59978
"CL 74 SUR 46 E 78 EDIFICIO MIRADOR DE LAS VEGAS PH SABANETA , Colombia",6.1526799883643,-75.6198543852901
"CR 80 34 B 86 EDIFICIO MAYOHA MEDELLIN , Colombia",6.2424599827465,-75.6001099923626
"CL 61 SUR 43 A 32 SABANETA , Colombia",6.15487522083996,-75.6089750712744
"CL 2 SUR 35 16 MEDELLIN , Colombia",6.1996000009587,-75.5675799937768
"CL 9 B SUR 79 A 221 URBANIZACION RODEO VERDE PH MEDELLIN , Colombia",6.20225843192776,-75.5992790823403
"CR 76 53 90 URBANIZACION FUENTE DE COLORES PH MEDELLIN , Colombia",6.26406999596584,-75.5892400050486
"CR 74 53 55 CONJUNTO INMOBILIARIO NUEVO MUNDO PH MEDELLIN , Colombia",6.26354000822806,-75.5884699596038
"CR 83 B 33 82 EDIFICIO GALILEA PH MEDELLIN , Colombia",6.23943998303238,-75.6073500288685
"CL 50 A 96 C 165 URBANIZACION AMANECERES VIS PH MEDELLIN , Colombia",6.24589000000003,-75.5745699999999
"CR 93 35 B 118 MEDELLIN , Colombia",6.24900000460865,-75.6143800148807
"CL 70 SUR 38 305 CONJUNTO RESIDENCIAL LOMA LINDA PH SABANETA , Colombia",6.14957864398415,-75.6137223871862
"CR 20 25 SUR 81 URBANIZACION BARICHARA CASAS PH ENVIGADO , Colombia",6.17270737563242,-75.5621304090872
"CIR 3 66 B 165 EDIFICIO NANTES MEDELLIN , Colombia",6.24468955775869,-75.5868877365648
"CR 80 37 44 EDIFICIO JACARANDA DE LAURELES PH MEDELLIN , Colombia",6.24522001773362,-75.5999400073662
"CR 80 AA 36 44 MEDELLIN , Colombia",6.24463999003387,-75.6012699639431
"CL 76 80 205 MEDELLIN , Colombia",6.27723000304644,-75.5915399992799
"CL 61 SUR 43 A 32 SABANETA , Colombia",6.15487522083996,-75.6089750712744
"CR 80 AA 35 A 15 EDIFICIO MAZIRUMA II MEDELLIN , Colombia",6.24378000676808,-75.60151002165
"CR 74 53 55 CONJUNTO INMOBILIARIO NUEVO MUNDO PH MEDELLIN , Colombia",6.26354000822806,-75.5884699596038
"CL 9 B SUR 79 A 221 URBANIZACION RODEO VERDE PH MEDELLIN , Colombia",6.20225843192776,-75.5992790823403
"CL 65 80 A 28 EDIFICIO TORRE JORDAN PH MEDELLIN , Colombia",6.27403000196163,-75.5943299995709
"CL 19 43 G 80 MEDELLIN , Colombia",6.22229400858182,-75.5695325369338
"CL 19 43 G 80 CONJUNTO DE USO MIXTO PLAZA DE RIO PH MEDELLIN , Colombia",6.24589000000003,-75.5745699999999
"DG 74 B 32 EE 147 EDIFICIO ALAMEDA MEDELLIN , Colombia",6.23905226310294,-75.5928632321353
"CL 27 82 A 85 URBANIZACION FAROLES PH MEDELLIN , Colombia",6.22840001072194,-75.6048699913569
"CL 76 80 205 CONJUNTO RESIDENCIAL TORRES DE HUNGRIA PH MEDELLIN , Colombia",6.22246000000007,-75.60318
"CL 76 SUR 46 22 URB VIGO APARTAMENTOS PH SABANETA , Colombia",6.15040833127399,-75.6204761455571
"CQ 3 66 B 165 EDIFICIO NANTES MEDELLIN , Colombia",6.24468955775869,-75.5868877365648
"CL 50 A 86 295 URBANIZACION CONDADO DE CALASANZ MEDELLIN , Colombia",6.268079982264,-75.604249981979
"CR 84 F 3 D 150 CONJUNTO AVIVA PH MEDELLIN , Colombia",6.21715134627526,-75.6069403722365
"CL 51 A 78 B 63 MEDELLIN , Colombia",6.26421999012317,-75.5954400150084
"CIR 3 66 B 165 EDIFICIO NANTES MEDELLIN , Colombia",6.24468955775869,-75.5868877365648
"CR 81 C 49 74 MEDELLIN , Colombia",6.26288001717202,-75.6000300290063
"CR 39 48 19 MEDELLIN , Colombia",6.24396998260355,-75.5604999678025
"CL 61 SUR 43 A 32 URBANIZACION SERRANA APARTAMENTOS PH SABANETA , Colombia",6.15487522083996,-75.6089750712744
"CL 20 A 77 15 URBANIZACION BELEN AVENIDA MEDELLIN , Colombia",6.22492998662635,-75.5980700047678
"CL 35 87 A 13 MEDELLIN , Colombia",6.24394001729969,-75.6122100239676
"CR 84 45 C 53 EDIFICIO EL PILON MEDELLIN , Colombia",6.25484001182711,-75.6021099982793
"CL 20 A 77 15 MEDELLIN , Colombia",6.22492998662635,-75.5980700047678
"CL 42 80 B 49 MEDELLIN , Colombia",6.24888001766469,-75.60151002165
"CR 76 53 90 URBANIZACION FUENTE DE COLORES PH MEDELLIN , Colombia",6.26406999596584,-75.5892400050486
"CR 84 B 7 95 MEDELLIN , Colombia",6.21716463165946,-75.606940977153
"CL 49 DD 86 35 EDIFICIO NUEVO PORTAL MEDELLIN , Colombia",6.26242001832576,-75.6044499741888
"CL 36 80 B 35 EDIFICIO ARAGON PH MEDELLIN , Colombia",6.24429000366679,-75.6022600343461
"CR 73 52 65 CONJUNTO DE USO MIXTO CAMINO DE COLORES MEDELLIN , Colombia",6.26299829472004,-75.587201048546
"CL 41 103 33 MEDELLIN , Colombia",6.25517000735512,-75.6183800267141
"CL 9 B SUR 79 A 221 URBANIZACION RODEO VERDE MEDELLIN , Colombia",6.20225843192776,-75.5992790823403
"CR 65 8 B 91 LC 006 MEDELLIN , Colombia",6.2163099954912,-75.5865400263977
"CR 81 4 G 65 URBANIZACION MIRADOR DE LOS BERNAL MEDELLIN , Colombia",6.22050705986023,-75.6027224329403
"CL 74 SUR 46 E 78 MIRADOR DE LAS VEGAS SABANETA , Colombia",6.1526799883643,-75.6198543852901
"CL 9 B SUR 79 A 221 MEDELLIN , Colombia",6.20225843192776,-75.5992790823403
"CR 75 DA 2 B SUR 320 LOS CABOS PH MEDELLIN , Colombia",6.20550999706867,-75.5993100235235
"AV 39 D 73 126 MEDELLIN , Colombia",6.24660132242182,-75.5944650426612
"CR 87 A 35 57 ABADIA DEL PARQUE MEDELLIN , Colombia",6.24455998476807,-75.611910035653
"CL 34 C 88 B 66 CONJUNTO RESIDENCIAL RIO CAMPESTRE PH MEDELLIN , Colombia",6.24371999234134,-75.6149700170453
"CL 17 37 A 80 URB  PROVIDENCIA DE CASTROPOLO PH MEDELLIN , Colombia",6.21703000097398,-75.566339975021
"CL 49 E 83 A 196 CONJUNTO RESIDENCIAL SOL NACIENTE PH MEDELLIN , Colombia",6.2640300142877,-75.6028300037621
"CR 53 13 A SUR 51 URB ENTRECOLINAS ETAPA 1 ITAGUI , Colombia",6.19509963804217,-75.592274342236
"CL 49 DD 86 35 EDIFICIO NUEVO PORTAL MEDELLIN , Colombia",6.26242001832576,-75.6044499741888
"CR 35 A 77 SUR 113 CONJUNTO RESIDENCIAL ALAMEDA PH SABANETA , Colombia",6.14243441364267,-75.6140476973826
"CR 96 C 50 A 280 CONJUNTO RESIDENCIAL MONTEPARAISO MEDELLIN , Colombia",6.24589000000003,-75.5745699999999
"CL 78 SUR 40 211 URBANIZACION PARQUES DE SAN REMO PH SABANETA , Colombia",6.14549561985257,-75.6222031595206
"CL 52 71 60 MEDELLIN , Colombia",6.26067000267128,-75.586619989754
"CL 49 E 83 A 196 CONJUNTO RESIDENCIAL URBANIZACION SOL NACIENTE PH MEDELLIN , Colombia",6.2640300142877,-75.6028300037621
"CL 54 40 58 EDIFICIO ALTAMAR PH MEDELLIN , Colombia",6.24905000266109,-75.5597200317121
"CL 51 64 B 21 EDIFICIO VIVALDI MEDELLIN , Colombia",6.25582999841116,-75.5794500259587
"CL 61 SUR 43 A 32 SERRANA APARTAMENTOS PH SABANETA , Colombia",6.15487522083996,-75.6089750712744
"CL 76 80 205 TORRES DE HUNGRIA MEDELLIN , Colombia",6.27709000000004,-75.5913399999999
"CR 81 A 37 D - 36 ED TORRE LONDRES II MEDELLIN , Colombia",6.2466200051115,-75.6031099593281
"CL 49 DD 86 35 EDIFICIO NUEVO PORTAL MEDELLIN , Colombia",6.26242001832576,-75.6044499741888
"CL 48 A 83 15 MEDELLIN , Colombia",6.2606500118322,-75.601700039395
"CL 5 76 A 150 URBANIZACION VITENZA PH MEDELLIN , Colombia",6.21711000623978,-75.6019599622125
"CL 34 F 89 68 MEDELLIN , Colombia",6.2454099935691,-75.6146100143039
"CR 66 B 32 D 69 EDIFICIO SALERMO PH MEDELLIN , Colombia",6.23825672742418,-75.587540838442
"CL 27 SUR 27 B 69 EDIFICIO POSITANO ENVIGADO , Colombia",6.17419334795611,-75.5704906009671
"CL 20 A 77 15 URBANIZACION BELEN AVENIDA MEDELLIN , Colombia",6.22492998662635,-75.5980700047678
"CR 76 A 53 35 CONJUNTO DE USO MIXTO JARDIN DE COLORES MEDELLIN , Colombia",6.26475999423525,-75.5900800393848
"CL 76 SUR 46 22 URB VIGO SABANETA , Colombia",6.15040833127399,-75.6204761455571
"CL 76 SUR 46 22 URBANIZACION VIGO APARTAMENTOS PH SABANETA , Colombia",6.15040833127399,-75.6204761455571
"CL 49 E 83 A 196 CONJUNTO RESIDENCIAL URBANIZACION SOL NACIENTE MEDELLIN , Colombia",6.2640300142877,-75.6028300037621
"CR 87 A 32 C 25 MEDELLIN , Colombia",6.23493924594251,-75.6098663924821
"CL 37 B 81 A 13 EDIFICIO CACIQUE TONE MEDELLIN , Colombia",6.24491490019008,-75.6034619239175
"CL 40 A 80 B 21 MEDELLIN , Colombia",6.2481699866467,-75.6007699834186
"CL 9 B SUR 79 A 221 URBANIZACION RODEO VERDE MEDELLIN , Colombia",6.20225843192776,-75.5992790823403
"TR 15 DG 79 120 EDIFICIO TORRES DE AVIÑON II MEDELLIN , Colombia",6.22052853659414,-75.6011183238299
"CR 74 53 55 URBANIZACION NUEVO MUNDO MEDELLIN , Colombia",6.26354000822806,-75.5884699596038
"CR 85 D 53 20 CONJUNTO RESIDENCIAL Y COMERCIAL PUNTA LUNA PH MEDELLIN , Colombia",6.26918999770153,-75.6004499623554
"CL 41 88 81 UNIDAD RESIDENCIAL TORRES DE AMERICA MEDELLIN , Colombia",6.24993001867549,-75.608270026561
"CL 63 80 A 126 EDIFICIO MIRADOR DE LA 80 MEDELLIN , Colombia",6.27358001948967,-75.5952800044768
"CR 29 16 201 MEDELLIN , Colombia",6.21706998265212,-75.5596200356072
"CL 43 77 43 MEDELLIN , Colombia",6.24925714613062,-75.5962965068324
"CL 20 A 77 15 URBANIZACION BELEN AVENIDA MEDELLIN , Colombia",6.22492998662635,-75.5980700047678
"CL 76 SUR 46 22 URBANIZACION VIGO APARTAMENTOS SABANETA , Colombia",6.15040833127399,-75.6204761455571
"CL 77 AC 75 165 CONJUNTO RESIDENCIAL FUENTE AZUL PH MEDELLIN , Colombia",6.24589000000003,-75.5745699999999
"CL 2 79 35 UNIDAD MIRADOR DE LA MOTA MEDELLIN , Colombia",6.21242455104764,-75.6006360393083
"CR 76 53 90 URBANIZACION FUENTE DE COLORES MEDELLIN , Colombia",6.26406999596584,-75.5892400050486
"CL 65 80 A 95 CONJUNTO RESIDENCIAL 80 AVENIDA PH MEDELLIN , Colombia",6.27442001191639,-75.5947399584552
"CL 80 SUR 47 C 61 EDIFICIO BALCONES DE LA HOLANDA PH SABANETA , Colombia",6.14796700531682,-75.6266108557231
"CL 63 80 A 40 MEDELLIN , Colombia",6.27349279409935,-75.5939096899897
"CL 63 80 A 126 MIRADOR DE LA 80 MEDELLIN , Colombia",6.27358001948967,-75.5952800044768
"CL 63 80 A 40 UNIDAD RESIDENCIAL CRUCERO DE LA 80 MEDELLIN , Colombia",6.27349279409935,-75.5939096899897
"CL 33 C 88 A 93 CONJUNTO LAURELES CAMPESTRE ETAPA  PARQUE CAMP MEDELLIN , Colombia",6.24163606840476,-75.6135063489757
"CL 70 SUR 43 A 15 CONJUNTO RESIDENCIAL CANTO DE LUNA SABANETA , Colombia",6.15007604247056,-75.6145574015868
"CL 17 37 A 80 URBANIZACION  PROVIDENCIA DE CASTROPOLO MEDELLIN , Colombia",6.21703000097398,-75.566339975021
"CL 18 A SUR 22 35 URB MANANTIAL DE SAN LUCAS MEDELLIN , Colombia",6.18062999387301,-75.5616000087753
"CL 50 A 96 C 165 URBANIZACION AMANECERES VIS PH MEDELLIN , Colombia",6.24589000000003,-75.5745699999999
"CR 93 50 A 91 UNIDAD RESIDENCIAL CALASANZ AZUL PH MEDELLIN , Colombia",6.26912831495182,-75.6042182022069
"CL 9 B SUR 79 A 221 URBANIZACION RODEO VERDE MEDELLIN , Colombia",6.20225843192776,-75.5992790823403
"CL 78 SUR 40 211 URBANIZACION PARQUES DE SAN REMO PH SABANETA , Colombia",6.14549561985257,-75.6222031595206
"CR 93 50 A 91 UNIDAD RESIDENCIAL CALASANZ AZUL PH MEDELLIN , Colombia",6.26912831495182,-75.6042182022069
"CR 81 4 G 65 URBANIZACION MIRADOR DE LOS BERNAL MEDELLIN , Colombia",6.22050705986023,-75.6027224329403
"CL 37 80 A 29 EDIFICIO MAPORA MEDELLIN , Colombia",6.24483000777887,-75.6011399606248
"CL 76 SUR 46 22 URBANIZACION VIGO APARTAMENTOS SABANETA , Colombia",6.15040833127399,-75.6204761455571
"CL 52 71 A 26 EDIFICIO PLAZA DEL ESCORIAL TORRES 4 Y 5 MEDELLIN , Colombia",6.26098998182499,-75.587140003027
"CL 65 55 30 URBANIZACION TORRES DE LA FUENTE PH MEDELLIN , Colombia",6.26323000353912,-75.5683900208997
"CR 30 2 70 MEDELLIN , Colombia",6.24915223591815,-75.5500598883024
"CR 93 50 A 91 UNIDAD RESIDENCIAL CALASANZ AZUL PH MEDELLIN , Colombia",6.26912831495182,-75.6042182022069
"CR 28 29 145 CONJUNTO RESIDENCIAL SAN DIEGO CAMPESTRE MEDELLIN , Colombia",6.23349000000007,-75.56834
"CL 9 B SUR 79 A 221 URB RODEO VERDE MEDELLIN , Colombia",6.20225843192776,-75.5992790823403
"CR 81 A 37 D 24 MEDELLIN , Colombia",6.24623401834016,-75.603142634615
"CL 50 A 96 C 165 URBANIZACION AMANECERES VIS PH MEDELLIN , Colombia",6.24589000000003,-75.5745699999999
"CL 50 A 96 C 165 URBANIZACION AMANECERES VIS PH MEDELLIN , Colombia",6.24589000000003,-75.5745699999999
"CR 93 50 A 91 UNIDAD RESIDENCIAL CALASANZ AZUL PH MEDELLIN , Colombia",6.26912831495182,-75.6042182022069
"CR 75 DA 2 B SUR 320 MEDELLIN , Colombia",6.20550999706867,-75.5993100235235
"CL 30 A 79 69 MEDELLIN , Colombia",6.23193998179954,-75.5998400112613
"CL 76 80 205 CONJUNTO RESIDENCIAL TORRES DE HUNGRIA PH MEDELLIN , Colombia",6.22246000000007,-75.60318
"TRV 32 D 74 D 53 MEDELLIN , Colombia",6.23726036542023,-75.5942108713188
"CR 32 16 300 MEDELLIN , Colombia",6.21804002030662,-75.5618799643414
"CR 73 52 65 CONJUNTO DE USO MIXTO CAMINO DE COLORES MEDELLIN , Colombia",6.26299829472004,-75.587201048546
"CL 9 SUR 79 C 115 MEDELLIN , Colombia",6.20332397290472,-75.6025727736512
"CR 81 A 36 49 MEDELLIN , Colombia",6.24476999335214,-75.6033500170351
"CR 76 A 53 215 URBANIZACION PLAZA DE COLORES MEDELLIN , Colombia",6.26562999387534,-75.5895199606146
"CL 49 51 35 BELLO , Colombia",6.33347206467637,-75.5593291635189
"CR 46 A 66 SUR 143 EDIFICIO EMANUEL PH SABANETA , Colombia",6.15394075404019,-75.6159726889853
"CL 9 SUR 79 C 199 URB PINAR DEL RODEO MEDELLIN , Colombia",6.20332397290472,-75.6025727736512
"CR 25 10 40 URB CAMINOS DE MONTICELLO MEDELLIN , Colombia",6.20838000262546,-75.5553499588535
"CL 63 80 A 126 URB MIRADOR DE LA 80 MEDELLIN , Colombia",6.27358001948967,-75.5952800044768
"CR 76 A 53 215 URBANIZACION PLAZA DE COLORES MEDELLIN , Colombia",6.26562999387534,-75.5895199606146
"CR 28 29 145 CONJUNTO RESIDENCIAL SANDIEGO CAMPESTRE MEDELLIN , Colombia",6.23349000000007,-75.56834
"CR 75 DA 2 B SUR 320 CONJUNTO RESIDENCIAL LOS CABOS PH MEDELLIN , Colombia",6.20550999706867,-75.5993100235235
"CL 78 SUR 40 211 URB PARQUES DE SAN REMO SABANETA , Colombia",6.14549561985257,-75.6222031595206
"CL 9 SUR 79 A 72 URB PUERTA DEL RODEO MEDELLIN , Colombia",6.20194465634057,-75.5949808594431
"CR 40 B 15 73 EDIFICIO TORRES DE CASTROPOL MEDELLIN , Colombia",6.21548001943877,-75.5670899877171
"CR 96 C 50 A 280 CONJUNTO RESIDENCIAL MONTEPARAISO MEDELLIN , Colombia",6.24589000000003,-75.5745699999999
"CL 5 SUR 22 290 URBANIZACION AGUAS DEL BOSQUE MEDELLIN , Colombia",6.20783433635758,-75.6103037150505
"CL 38 75 07 URB MIRADOR DEL  PARQUE PH MEDELLIN , Colombia",6.24499999277526,-75.5976100059215
"CL 65 80 A 95 CONJUNTO RESIDENCIAL 80 AVENIDA PH MEDELLIN , Colombia",6.27442001191639,-75.5947399584552
"CR 37 A 29 56 CONJUNTO RESIDENCIAL CERATTO MEDELLIN , Colombia",6.22681000559908,-75.5639399846848
"CR 73 A 45 D 61 MEDELLIN , Colombia",6.25167764548756,-75.592746490423
"CR 72 A 73 45 EDIFICIO PILARICA BLUE PH MEDELLIN , Colombia",6.27409001638837,-75.5823299640707
"CR 37 29 56 CONJUNTO RESIDENCIAL CERATTO PH MEDELLIN , Colombia",6.20542000000006,-75.56718
"CR 27 AA 36 SUR 151 CONJUNTO RESIDENCIAL NATIVO FLORA PH ENVIGADO , Colombia",6.15846977376368,-75.5740508376596
"CR 82 A 37 B 32 EDIFICIO MIXTO SIMON BOLIVAR PH MEDELLIN , Colombia",6.24552000604827,-75.6043600363677
"CL 42 102 27 MEDELLIN , Colombia",6.25579001673302,-75.6178399806925
"CR 39 77 SUR 84 URB MADEROS DEL CAMPO AP SABANETA , Colombia",6.15260000000006,-75.6109
"CIR 73 A 38 50 EDIFICIO VILLA LOGROÑO PH MEDELLIN , Colombia",6.24268551349635,-75.5954815344218
"CL 29 29 31 920 MEDELLIN , Colombia",6.22691386637668,-75.5596731881517
"CL 70 SUR 38 305 CONJUNTO RESIDENCIAL LOMA LINDA PH SABANETA , Colombia",6.14957864398415,-75.6137223871862
"CR 77 33 A 30 EDIFICIO LAURELES DEL PINAR MEDELLIN , Colombia",6.23987999103957,-75.5975700242434
"CL 49 DD 86 35 EDIFICIO NUEVO PORTAL MEDELLIN , Colombia",6.26242001832576,-75.6044499741888
"CR 59 5 A 10 MEDELLIN , Colombia",6.21312998524547,-75.5861899981211
"CL 9 B SUR 79 A 221 URBANIZACION RODEO VERDE MEDELLIN , Colombia",6.20225843192776,-75.5992790823403
"CL 5 80 C 125 URBANIZACION ARROYO DE LOS BERNAL MEDELLIN , Colombia",6.24589000000003,-75.5745699999999
"CL 18 A SUR 22 35 EDIFICIO MANANTIAL DE SAN LUCAS MEDELLIN , Colombia",6.18062999387301,-75.5616000087753
"CR 80 C 34 A 71 MEDELLIN , Colombia",6.24168931265822,-75.6024542355182
"CR 33 28 10 SERRANIAS DE SAN DIEGO MEDELLIN , Colombia",6.23349000000007,-75.56834
"CR 86 66 140 CONJUNTO MULTIFAMILIAR EL CORTIJO PH MEDELLIN , Colombia",6.27664000000004,-75.59309
"CR 45 77 SUR 88 EDIFICIO MANHATTAN PH SABANETA , Colombia",6.14706084145538,-75.620323113397
"CL 56 SUR 40 B 22 SABANETA , Colombia",6.15444032165745,-75.6036467537897
"CR 93 50 A 91 UNIDAD RESIDENCIAL CALASANZ AZUL PH MEDELLIN , Colombia",6.26912831495182,-75.6042182022069
"CL 49 E 83 A 200 URBANIZACION SOL CRECIENTE MEDELLIN , Colombia",6.26444998954629,-75.6031500248253
"CL 50 A 96 C 165 URBANIZACION AMANECERES VIS PH MEDELLIN , Colombia",6.24589000000003,-75.5745699999999
"CL 27 SUR 27 B 69 URBANIZACION POSITANO ENVIGADO , Colombia",6.17419334795611,-75.5704906009671
"CL 74 73 47 MIRADOR DE LA PILARIACA 1 PH MEDELLIN , Colombia",6.27423957572192,-75.5829527231562
"CR 45 A 80 SUR 127 CONJUNTO RESIDENCIAL LIVING SABANETA , Colombia",6.14611212086067,-75.6255263619562
"CR 76 53 89 URBANIZACION  PARQUE DE LOS COLORES MEDELLIN , Colombia",6.26482998312676,-75.5898900216398
"CL 29 29 31 GUAYACANES DE SAN DIEGO MEDELLIN , Colombia",6.22681834449577,-75.567617184634
"CL 39 52 28 OF 401 MEDELLIN , Colombia",6.24017997935422,-75.5735700370621
"CL 49 E 83 A 200 URBANIZACION SOL CRECIENTE MEDELLIN , Colombia",6.26444998954629,-75.6031500248253
"CR 71 A 52 70 EDIFICIO COLORS MEDELLIN , Colombia",6.26121000678334,-75.5865500008625
"CR 31 29 71 CONJUNTO RESIDENCIAL BOSQUES DE SAN DIEGO II PH MEDELLIN , Colombia",6.23349000000007,-75.56834
"CL 57 68 C 65 BELLO , Colombia",6.3422829280529,-75.5740745840698
"CR 85 66 35 MEDELLIN , Colombia",6.27736110489371,-75.5946577666982
"CR 50 27 B 151 EDIFICIO LILIAN VILLA DALIA BELLO , Colombia",6.3174234326294,-75.5571012550755
"CL 76 SUR 46 22 URBANIZACION VIGO APARTAMENTOS PH SABANETA , Colombia",6.15040833127399,-75.6204761455571
"CR 75 DA 2 B SUR 320 CONJUNTO RESIDENCIAL LOS CABOS PH MEDELLIN , Colombia",6.20550999706867,-75.5993100235235
"CR 74 52 55 OASIS DE COLORES MEDELLIN , Colombia",6.263360223302,-75.588482678293
"CR 35 29 81 UNIDAD RESIDENCIAL SAN DIEGO DE LAS PALMAS PH MEDELLIN , Colombia",6.24030000000005,-75.56505
"CL 49 DD 86 35 NUEVO PORTAL MEDELLIN , Colombia",6.26242001832576,-75.6044499741888
"CR 43 A 70 SUR 142 TORRE COLIBRI PH SABANETA , Colombia",6.14962328619843,-75.614768689601
"CR 73 52 65 CONJUNTO DE USO MIXTO CAMINO DE COLORES MEDELLIN , Colombia",6.26299829472004,-75.587201048546
"CL 33 C 88 A 115 FUENTE CAMPESTRE CONJUNTO LAURELES CAMPESTRE MEDELLIN , Colombia",6.24166985299991,-75.6135316945018
"CL 74 SUR 35 145 URBANIZACION CATALUÑA SABANETA , Colombia",6.1523272444927,-75.6196080776461
"CR 47 52 SUR 110 CONJUNTO RESIDENCIAL TORRES DE MAYORCA PH SABANETA , Colombia",6.15978170076147,-75.6060849660474
"CL 9 B SUR 79 A 221 URBANIZACION RODEO VERDE MEDELLIN , Colombia",6.20225843192776,-75.5992790823403
"CR 93 50 A 91 UNIDAD RESIDENCIAL CALASANZ AZUL PH MEDELLIN , Colombia",6.26912831495182,-75.6042182022069
"CL 61 75 153 CONJUNTO MIXTO BASALTO PH MEDELLIN , Colombia",6.26875129194393,-75.5906167905637
"CL 77 SUR 29 31 SABANETA , Colombia",6.14788039001333,-75.6209999224376
"CL 34 C 80 B 25 MEDELLIN , Colombia",6.24233999580254,-75.6020100021744
"CL 61 75 153 CONJUNTO MIXTO BASALTO PH MEDELLIN , Colombia",6.26875129194393,-75.5906167905637
"CR 84 F 3 D 150 CONJUNTO AVIVA PH MEDELLIN , Colombia",6.21715134627526,-75.6069403722365
"CR 75 DA 2 B SUR 320 CONJUNTO RESIDENCIAL LOS CABOS PH MEDELLIN , Colombia",6.20550999706867,-75.5993100235235
"CL 75 SUR 34 330 BALCONES DE FIDELENA 1 PH SABANETA , Colombia",6.14458001504866,-75.6153700014648
"CR 48 17 A SUR 51 CONJUNTO RESIDENCIAL VEGAS DE ZUÑIGA MEDELLIN , Colombia",6.18886658876007,-75.5810262825577
"CR 33 29 22 CONJUNTO RESIDENCIAL ENTREPALMAS DE SANDIEGO PH MEDELLIN , Colombia",6.23349000000007,-75.56834
"CR 75 DA 2 B SUR 320 CONJUNTO RESIDENCIAL LOS CABOS PH MEDELLIN , Colombia",6.20550999706867,-75.5993100235235
"CIR 3 66 B 165 EDIFICIO NANTES MEDELLIN , Colombia",6.24468955775869,-75.5868877365648
"CQ 3 66 B 165 EDIFICIO NANTES MEDELLIN , Colombia",6.24468955775869,-75.5868877365648
"CL 61 75 153 CONJUNTO MIXTO BASALTO PH MEDELLIN , Colombia",6.26875129194393,-75.5906167905637
"CL 51 38 49 ED BICEN DE LA PLAYA PH MEDELLIN , Colombia",6.24668408663123,-75.5581654904356
"CL 76 80 205 TORRES DE HUNGRIA MEDELLIN , Colombia",6.27709000000004,-75.5913399999999
"CL 26 39 70 URBANIZACION VELEROS DEL ESTE MEDELLIN , Colombia",6.22482999052146,-75.5665099600174
"CL 70 SUR 38 305 CONJUNTO RESIDENCIAL LOMA LINDA PH SABANETA , Colombia",6.14957864398415,-75.6137223871862
"CL 9 B SUR 79 A 221 URBANIZACION RODEO VERDE PH MEDELLIN , Colombia",6.20225843192776,-75.5992790823403
"CIR 76 A 53 35 CONJUNTO DE USO MIXTO JARDIN DE COLORES MEDELLIN , Colombia",6.26612000000006,-75.59367
"CR 31 29 71 CONJUNTO RESIDENCIAL BOSQUES DE SAN DIEGO II PH MEDELLIN , Colombia",6.23349000000007,-75.56834
"CR 81 C 49 F 50 EDIFICIO BELOHORIZONTE MEDELLIN , Colombia",6.26388002013037,-75.5998000295832
"CR 33 28 150 URB BOSQUES DE SAN DIEGO 1 MEDELLIN , Colombia",6.23349000000007,-75.56834
"CL 77 AC 75 165 MEDELLIN , Colombia",6.2794465095081,-75.5884998122724
"CL 36 SUR 27 10 URBANIZACION ENTREPARQUES APARTAMENTOS PH ENVIGADO , Colombia",6.16714733082004,-75.5693904216791
"CL 40 88 33 MEDELLIN , Colombia",6.24918000597934,-75.6086199710186
"CL 76 80 205 URB TORRES DE HUNGRIA MEDELLIN , Colombia",6.27723000304644,-75.5915399992799
"CR 81 B 48 A 14 MEDELLIN , Colombia",6.25993998081421,-75.5999000256881
"CL 61 75 153 CONJUNTO MIXTO BASALTO PH MEDELLIN , Colombia",6.26875129194393,-75.5906167905637
"CR 56 A 61 24 URB TURIN PH MEDELLIN , Colombia",6.26085000404197,-75.5712500100822
"CR 77 AA 47 25 MEDELLIN , Colombia",6.25650000584149,-75.595080012267
"CR 86 49 E 85 URBANIZACION NUEVO SOL PH MEDELLIN , Colombia",6.26540454679005,-75.6034311381794
"CR 73 52 65 CONJUNTO DE USO MIXTO CAMINO DE COLORES MEDELLIN , Colombia",6.26299829472004,-75.587201048546
"CL 49 DD 86 35 EDIFICIO NUEVO PORTAL MEDELLIN , Colombia",6.26242001832576,-75.6044499741888
"CR 93 50 A 91 CALASANZ AZUL PH MEDELLIN , Colombia",6.26912831495182,-75.6042182022069
"CR 76 53 89 URBANIZACION  PARQUE DE LOS COLORES MEDELLIN , Colombia",6.26482998312676,-75.5898900216398
"CR 76 53 89 URBANIZACION  PARQUE DE COLORES MEDELLIN , Colombia",6.26482998312676,-75.5898900216398
"CR 76 A 53 215 URBANIZACION PLAZA DE COLORES MEDELLIN , Colombia",6.26562999387534,-75.5895199606146
"CL 61 SUR 43 A 32 SERRANA APARTAMENTOS PH SABANETA , Colombia",6.15487522083996,-75.6089750712744
"CR 73 52 65 CONJUNTO DE USO MIXTO CAMINO DE COLORES MEDELLIN , Colombia",6.26299829472004,-75.587201048546
"CL 9 B SUR 79 A 221 URBANIZACION RODEO VERDE MEDELLIN , Colombia",6.20225843192776,-75.5992790823403
"CL 55 40 14 EDIFICIO TORRELIMA 1 PH MEDELLIN , Colombia",6.24939998902818,-75.5588400156977
"CR 88 34 05 CONJUNTO RESIDENCIAL TORRES DE MONTELIMAR MEDELLIN , Colombia",6.22246000000007,-75.60318
"CR 79 38 56 TORRE KENYA PH MEDELLIN , Colombia",6.24603000294698,-75.5991599874567
"CL 61 75 153 CONJUNTO MIXTO BASALTO PH MEDELLIN , Colombia",6.26875129194393,-75.5906167905637
"CL 57 68 C 65 MULTIFAMILIAR UNIDAD CERRADA PEÑA VERDE PH BELLO , Colombia",6.34034000000003,-75.55916
"CL 49 F 87 125 URBANIZACION DIA DE CAMPO PH MEDELLIN , Colombia",6.26369635588022,-75.605841165304
"CR 76 A 53 35 CONJUNTO DE USO MIXTO JARDIN DE COLORES MEDELLIN , Colombia",6.26475999423525,-75.5900800393848
"CL 29 41 98 MEDELLIN , Colombia",6.22699337865948,-75.5668612581513
"AV 74 B 39 B 166 EDIFICIO ENTREPARQUES PH MEDELLIN , Colombia",6.23917101033446,-75.5927426295704
"CL 18 A SUR 22 35 URBANIZACION MANANTIALES DE SAN LUCAS MEDELLIN , Colombia",6.18062999387301,-75.5616000087753
"CL 77 SUR 46 54 CONJUNTO RESIDENCIAL  PARQUE DE LA SABANA PH SABANETA , Colombia",6.1482663824633,-75.6213303234396
"CR 75 61 130 LAS CASAS DEL VALLE PH MEDELLIN , Colombia",6.2688658805967,-75.5887570725418
"CL 52 71 60 URB PORTOVELHO DE LOS COLORES MEDELLIN , Colombia",6.264689491072,-75.5949741273954
"CL 9 B SUR 79 A 221 URBANIZACION RODEO VERDE MEDELLIN , Colombia",6.20225843192776,-75.5992790823403
"CL 49 DD 86 35 EDIFICIO NUEVO PORTAL MEDELLIN , Colombia",6.26242001832576,-75.6044499741888
"CL 76 SUR 46 22 URBANIZACION VIGO APARTAMENTOS SABANETA , Colombia",6.15040833127399,-75.6204761455571
"CL 61 75 153 CONJUNTO MIXTO BASALTO PH MEDELLIN , Colombia",6.26875129194393,-75.5906167905637
"CL 38 A 80 72 CONJUNTO MULTIFAMILIAR CIUDADELA LOS LAURELES PH MEDELLIN , Colombia",6.24653393189584,-75.6004074652597
"DG 29 D 9 SUR 110 URB LUCCA MEDELLIN , Colombia",6.19127999813821,-75.565679983965
"CR 41 57 SUR 53 SABANETA , Colombia",6.15526178506052,-75.6056846357795
"CL 38 A 80 72 LOS LAURELES PH MEDELLIN , Colombia",6.24653393189584,-75.6004074652597
"CR 45 77 SUR 170 CONJUNTO RESIDENCIAL MATTIZ PH SABANETA , Colombia",6.14708170402143,-75.6203591480159
"CR 73 52 65 CONJUNTO DE USO MIXTO CAMINO DE COLORES MEDELLIN , Colombia",6.26299829472004,-75.587201048546
"CL 61 SUR 43 A 32 SERRANA APARTAMENTOS PH SABANETA , Colombia",6.15487522083996,-75.6089750712744
"CL 12 SUR 52 33 MEDELLIN , Colombia",6.19758000420293,-75.5904399583072
"CL 65 SUR 42 B 14 CONJUNTO RESIDENCIAL PASEO DE SAN FRANCISCO PH SABANETA , Colombia",6.1511710754154,-75.6100165971314
"CL 37 A 84 A 6 MEDELLIN , Colombia",6.24550545542963,-75.606855060043
"CL 68 SUR 43 A 70 EDIFICIO EL ROMERAL SABANETA , Colombia",6.15147153903196,-75.6137757823538
"CL 57 SUR 43 A 16 EDIFICIO TERRASANTA PH SABANETA , Colombia",6.15674838849521,-75.6066647412972
"CR 47 B 17 A SUR 35 PORTONES DE SANTA MARIA PH MEDELLIN , Colombia",6.18878815628688,-75.5806035449825
"CL 24 39 91 URBANIZACION CANTIZAL PH MEDELLIN , Colombia",6.22359001367521,-75.5666500216195
"CR 93 50 A 91 UNIDAD RESIDENCIAL CALASANZ AZUL PH MEDELLIN , Colombia",6.26912831495182,-75.6042182022069
"CL 77 AC 75 165 URB FUENTE AZUL MEDELLIN , Colombia",6.25125000000003,-75.56718
"CL 29 29 31 CONJUNTO RESIDENCIAL GUAYACANES DE SAN DIEGO MEDELLIN , Colombia",6.22681834449577,-75.567617184634
"CR 20 B 47 112 URBANIZACION FLORES DEL CASTILLO PH MEDELLIN , Colombia",6.23705038987392,-75.5470339740651
"CR 50 27 B 151 BELLO , Colombia",6.3174234326294,-75.5571012550755
"CL 54 85 40 URBANIZACION SENDERO DE LA 80 PH MEDELLIN , Colombia",6.24589000000003,-75.5745699999999
"CL 51 74 53 CONJUNTO RESIDENCIAL AIRES DE VALENCIA PH MEDELLIN , Colombia",6.24589000000003,-75.5745699999999
"CR 71 A 52 70 EDIFICIO COLORS MEDELLIN , Colombia",6.26121000678334,-75.5865500008625
"CR 32 6 SUR 295 URBANIZACION PORTOFINO PH MEDELLIN , Colombia",6.19308683702617,-75.5668058838519
"CL 50 A 96 C 165 URBANIZACION AMANECERES VIS PH MEDELLIN , Colombia",6.24589000000003,-75.5745699999999
"CL 76 SUR 46 22 URBANIZACION VIGO APARTAMENTOS PH SABANETA , Colombia",6.15040833127399,-75.6204761455571
"CR 93 50 A 91 UNIDAD RESIDENCIAL CALAZANS AZUL MEDELLIN , Colombia",6.26912831495182,-75.6042182022069
"CL 37 A 84 A 6 EDIFICIO ARCO MEDELLIN , Colombia",6.24550545542963,-75.606855060043
"CL 35 64 A 28 EDIFICIO CONQUISTADORES DEL PARQUE MEDELLIN , Colombia",6.24071000900153,-75.5819599868646
"CR 25 1 A SUR 155 TORRE ALTO TESORO MEDELLIN , Colombia",6.19709340231865,-75.557509697974
"CR 76 A 53 35 CONJUNTO DE USO MIXTO JARDIN DE COLORES MEDELLIN , Colombia",6.26475999423525,-75.5900800393848
"CR 76 A 53 35 CONJUNTO DE USO MIXTO JARDIN DE COLORES MEDELLIN , Colombia",6.26475999423525,-75.5900800393848
"CR 72 A 73 45 EDIFICIO PILARICA BLUE PH MEDELLIN , Colombia",6.27409001638837,-75.5823299640707
"CR 59 B 51 58 CONJUNTO RESIDENCIAL ALTOBELO PH BELLO , Colombia",6.20542000000006,-75.56718
"CR 47 52 SUR 110 CONJUNTO RESIDENCIAL TORRES DE MAYORCA PH SABANETA , Colombia",6.15978170076147,-75.6060849660474
"CR 32 6 SUR 295 URBANIZACION PORTOFINO PH MEDELLIN , Colombia",6.19308683702617,-75.5668058838519
"CL 79 72 A 64 URB PALMAR DEL VIENTO MEDELLIN , Colombia",6.27872788826827,-75.5809039266556
"CL 49 E 83 A 196 URBANIZACION SOL NACIENTE MEDELLIN , Colombia",6.2640300142877,-75.6028300037621
"CR 25 1 A SUR 155 EDIFICIO ALTO TESORO MEDELLIN , Colombia",6.19709340231865,-75.557509697974
"CL 34 C 88 B 55 CONJUNTO RESIDENCIAL PLAZA CAMPESTRE MEDELLIN , Colombia",6.24306000000007,-75.6155699999999
"CR 29 C 10 C 80 MEDELLIN , Colombia",6.21174998870667,-75.5585100201697
"CR 50 27 B 151 EDIFICIO LILIAN VILLA DALIA BELLO , Colombia",6.3174234326294,-75.5571012550755
"CL 70 SUR 38 305 CONJUNTO RESIDENCIAL LOMA LINDA PH SABANETA , Colombia",6.14957864398415,-75.6137223871862
"CR 27 28 SUR 23 CONJUNTO MULTIFAMILIAR SEPIA ENVIGADO , Colombia",6.16921323500326,-75.5684397783077
"CR 74 52 55 URBANIZACION OASIS DE COLORES MEDELLIN , Colombia",6.263360223302,-75.588482678293
"CR 50 27 B 151 EDIFICIO LILIAN VILLA DALIA BELLO , Colombia",6.3174234326294,-75.5571012550755
"CR 76 A 53 35 CONJUNTO DE USO MIXTO JARDIN DE COLORES MEDELLIN , Colombia",6.26475999423525,-75.5900800393848
"CL 72 A 50 70 ITAGUI , Colombia",6.18305650948305,-75.5970721238777
"CL 32 F 75 C 12 EDIFICIO MACERATA MEDELLIN , Colombia",6.23851001087506,-75.5952499972634
"CL 49 DD 86 35 EDIFICIO NUEVO PORTAL MEDELLIN , Colombia",6.26242001832576,-75.6044499741888
"CR 81 A 36 45 MEDELLIN , Colombia",6.24477692182214,-75.6033478846086
"CL 25 SUR 41 35 URBANIZACION ABADIA DEL CAMPO ETAPAS 1 Y 2 PH ENVIGADO , Colombia",6.17918272717085,-75.5777590497719
"CR 93 50 A 91 UNIDAD RESIDENCIAL CALASANZ AZUL PH MEDELLIN , Colombia",6.26912831495182,-75.6042182022069
"CR 47 52 SUR 110 TORRE MAYORCA SABANETA , Colombia",6.15978170076147,-75.6060849660474
"CL 34 C 88 B 55 URBANIZACION PLAZA CAMPESTRE MEDELLIN , Colombia",6.24363998707554,-75.6148300392622
"CR 33 28 10 MEDELLIN , Colombia",6.2473297296695,-75.5523115790639
"CL 71 SUR 35 340 URBANIZACION ALAIA MANTRA SABANETA , Colombia",6.14558702868813,-75.6109554010074
"CR 96 C 50 A 280 CONJUNTO RESIDENCIAL MONTEPARAISO MEDELLIN , Colombia",6.24589000000003,-75.5745699999999
"CL 65 90 90 URBANIZACION PENINSULA CONDOMINIO PH MEDELLIN , Colombia",6.27996000000007,-75.59978
"CR 76 A 53 35 CONJUNTO DE USO MIXTO JARDIN DE COLORES MEDELLIN , Colombia",6.26475999423525,-75.5900800393848
"CR 76 53 79 URBANIZACION PARAISO DE LOS COLORES MEDELLIN , Colombia",6.26454998565119,-75.590069981101
"CR 73 52 65 CAMINO DE COLORES MEDELLIN , Colombia",6.26299829472004,-75.587201048546
"CR 59 70 349 ITAGUI , Colombia",6.17811334018395,-75.6129897247802
"CIR 74 76 39 EDIFICIO VILLANGELA PH MEDELLIN , Colombia",6.24405712183083,-75.5976265326341
"CR 73 52 65 CONJUNTO DE USO MIXTO CAMINO DE COLORES MEDELLIN , Colombia",6.26299829472004,-75.587201048546
"CR 29 E 11 SUR 110 URBANIZACION SAINT PIERRE PH MEDELLIN , Colombia",6.24589000000003,-75.5745699999999
"CL 34 C 88 B 55 PLAZA CAMPESTRE MEDELLIN , Colombia",6.24363998707554,-75.6148300392622
"CR 76 A 53 215 URB PLAZA DE COLORES MEDELLIN , Colombia",6.26562999387534,-75.5895199606146
"CL 76 80 205 MEDELLIN , Colombia",6.27723000304644,-75.5915399992799
"CR 66 32 B 35 MEDELLIN , Colombia",6.23636001080105,-75.5865599753272
"CR 93 50 A 91 UNIDAD RESIDENCIAL CALASANZ AZUL PH MEDELLIN , Colombia",6.26912831495182,-75.6042182022069
"CL 61 75 116 CONJUNTO DE USO MIXTO PIZARRA MEDELLIN , Colombia",6.26886291352166,-75.5905907153046
"CL 9 B SUR 79 A 221 URBANIZACION RODEO VERDE PH MEDELLIN , Colombia",6.20225843192776,-75.5992790823403
"CR 33 29 105 UNIDAD INMOBILIARIA CERRADA HALCONES DE SAN DIEGO PH MEDELLIN , Colombia",6.23349000000007,-75.56834
"CR 80 B 32 D 04 CA 134 BOSQUES Y BALCONES DE LA CASTELLANA MEDELLIN , Colombia",6.24069000000003,-75.60679
"CL 65 80 A 95 CONJUNTO RESIDENCIAL 80 AVENIDA PH MEDELLIN , Colombia",6.27442001191639,-75.5947399584552
"CR 33 28 150 MEDELLIN , Colombia",6.2473297296695,-75.5523115790639
"CL 49 DD 86 35 EDIFICIO NUEVO PORTAL MEDELLIN , Colombia",6.26242001832576,-75.6044499741888
"CL 34 82 A 15 EDIFICIO SANTA ISABELA MEDELLIN , Colombia",6.24137000005756,-75.6052800340603
"CR 33 28 150 CONJUNTO RESIDENCIAL BOSQUES DE SAN DIEGO 1 MEDELLIN , Colombia",6.23349000000007,-75.56834
"CR 74 52 55 URBANIZACION OASIS DE COLORES MEDELLIN , Colombia",6.263360223302,-75.588482678293
"CL 27 D SUR 27 B 80 URBANIZACION SIEMPRE VERDE PH ENVIGADO , Colombia",6.16930083021851,-75.5715521457514
"CL 23 41 20 UNIDAD RESIDENCIAL GUADUAL PH MEDELLIN , Colombia",6.2219500104999,-75.5670599805038
"CL 3 B SUR 29 C 120 ED LOS URALES PH MEDELLIN , Colombia",6.19676000261528,-75.5635799819434
"CL 7 83 31 CONJUNTO RESIDENCIAL SIEMPRE VERDE PH MEDELLIN , Colombia",6.21944189048907,-75.6053627321614
"CL 36 79 41 EDIFICIO SARATOGA MEDELLIN , Colombia",6.24396998260355,-75.600000021793
"CR 74 52 55 URBANIZACION OASIS DE COLORES APARTAMENTOS MEDELLIN , Colombia",6.263360223302,-75.588482678293
"CR 28 37 B SUR 73 URBANIZACION TIERRA PROMETIDA PH ENVIGADO , Colombia",6.16192697288471,-75.5798462294
"CL 34 C 81 A 21 MEDELLIN , Colombia",6.2424599827465,-75.6035200020315
"CR 77 B 60 81 CONJUNTO RESIDENCIAL LOS ALMENDROS DE LA 80 MEDELLIN , Colombia",6.23422923936798,-75.5972100368918
"CR 48 76 D SUR 34 CONJUNTO MULTIFAMILIAR LAS VEGAS PLAZA PH SABANETA , Colombia",6.15241619873095,-75.6234032920391
"CR 96 C 50 A 280 CONJUNTO RESIDENCIAL MONTEPARAISO MEDELLIN , Colombia",6.24589000000003,-75.5745699999999
"CL 42 101 25 MEDELLIN , Colombia",6.25589273736933,-75.6165140045892
"CL 63 80 A 40 CRUCERO DE LA 80 MEDELLIN , Colombia",6.27349279409935,-75.5939096899897
"CR 75 DA 2 B SUR 320 LOS CABOS PH MEDELLIN , Colombia",6.20550999706867,-75.5993100235235
"CR 115 A 64 CC 04 URBANIZACION BOSQUES DE LA MACARENA PH MEDELLIN , Colombia",6.23458197608722,-75.6334823193213
"CR 76 A 3 C 35 TORRE CAPRI CONJUNTO RESIDENCIAL MEDITERRANEO PH MEDELLIN , Colombia",6.24589000000003,-75.5745699999999
"CR 68 42 A 31 MEDELLIN , Colombia",6.24783001665391,-75.5861200092296
"CR 73 52 65 CAMINO DE COLORES MEDELLIN , Colombia",6.26299829472004,-75.587201048546
"CR 83 B 33 82 EDIFICIO GALILEA PH MEDELLIN , Colombia",6.23943998303238,-75.6073500288685
"CR 81 C 49 F 50 EDIFICIO BELOHORIZONTE PH MEDELLIN , Colombia",6.26388002013037,-75.5998000295832
"CR 76 A 53 35 CONJUNTO DE USO MIXTO JARDIN DE COLORES MEDELLIN , Colombia",6.26475999423525,-75.5900800393848
"CL 61 75 116 CONJUNTO DE USO MIXTO PIZARRA PH MEDELLIN , Colombia",6.26886291352166,-75.5905907153046
"CL 33 A 70 A 123 CONDOMINIO TORREALBA MEDELLIN , Colombia",6.2396100099383,-75.5923200191894
"CL 49 F 87 35 URBANIZACION CAMPO VERDE PH MEDELLIN , Colombia",6.2636339791227,-75.6059145533432
"CR 76 53 79 URBANIZACION PARAISO DE LOS COLORES MEDELLIN , Colombia",6.26454998565119,-75.590069981101
"CR 90 65 C 10 CONJUNTO RESIDENCIAL MIRADOR DE BARCELONA MEDELLIN , Colombia",6.27857578729551,-75.5983666700752
"CL 70 SUR 38 358 EDIFICIO LYRA PH SABANETA , Colombia",6.14983043864359,-75.6138595842069
"CL 77 SUR 35 A 71 MADEROS DEL CAMPO ETAPA ll SABANETA , Colombia",6.14321566640414,-75.6187965104599
"CR 76 A 3 C 35 TORRE CAPRI C R MEDITERRANEO PH MEDELLIN , Colombia",6.21379911673514,-75.6002464052536
"CR 27 B 37 B SUR 80 CONJUNTO RESIDENCIAL MUGA PH ENVIGADO , Colombia",6.1599241340495,-75.5758326282048
"CL 61 SUR 43 A 32 SERRANA APARTAMENTOS PH SABANETA , Colombia",6.15487522083996,-75.6089750712744
"CR 59 B 51 58 CONJUNTO RESIDENCIAL ALTOBELO PH BELLO , Colombia",6.20542000000006,-75.56718
"CR 53 61 A 19 PISO 1 MEDELLIN , Colombia",6.26075998240186,-75.5681499631927
"CR 96 C 50 A 280 MEDELLIN , Colombia",6.28874504067411,-75.5593749068488
"CL 40 88 33 EDIFICIO TORRE PICASSO PH MEDELLIN , Colombia",6.24918000597934,-75.6086199710186
"CL 61 75 116 CONJUNTO DE USO MIXTO PIZARRA PH MEDELLIN , Colombia",6.26886291352166,-75.5905907153046
"CL 32 EE 82 40 MEDELLIN , Colombia",6.23762002039589,-75.60509999078
"CL 57 68 C 163 MULTIFAMILIAR AGUA CLARA BELLO , Colombia",6.34253211040378,-75.5748070081098
"CL 38 A 80 72 URB CIUDADELA LOS LAURELES MEDELLIN , Colombia",6.24653393189584,-75.6004074652597
"CL 61 75 116 MEDELLIN , Colombia",6.26886291352166,-75.5905907153046
"CR 65 F 30 C 10 NUEVO CONQUISTADORES MEDELLIN , Colombia",6.25092000000006,-75.6280199999999
"CL 61 75 116 CONJUNTO DE USO MIXTO PIZARRA PH MEDELLIN , Colombia",6.26886291352166,-75.5905907153046
"CL 34 63 B 8 EDF SALAMANCA MEDELLIN , Colombia",6.24025998462004,-75.5799899881612
"CL 63 80 A 40 UNIDAD RESIDENCIAL CRUCERO DE LA 80 MEDELLIN , Colombia",6.27349279409935,-75.5939096899897
"CR 27 D 34 DD SUR 44 ENVIGADO , Colombia",6.17012491275361,-75.5756963826992
"CL 17 37 A 135 UNIDAD RESIDENCIAL BORNEO DE CASTROPOLO MEDELLIN , Colombia",6.21694622876901,-75.5665008296379
"CL 76 89 C 66 URBANIZACION ROBLEALTO MEDELLIN , Colombia",6.28345522751005,-75.5959611828692
"CL 76 SUR 46 22 URB VIGO SABANETA , Colombia",6.15040833127399,-75.6204761455571
"CL 49 F 87 75 URB CAMPO DE VERANO MEDELLIN , Colombia",6.26367296459615,-75.6058686858187
"CR 86 A 37 75 ED TAHAMI II MEDELLIN , Colombia",6.24672000121639,-75.6090799698648
"CL 9 SUR 79 C 199 URBANIZACION PINAR DEL RODEO MEDELLIN , Colombia",6.20332397290472,-75.6025727736512
"CL 65 EE 90 47 MEDELLIN , Colombia",6.27997997974975,-75.5981600264079
"CL 49 E 83 A 196 COJUNTO RESIDENCIAL SOL NACIENTE PH MEDELLIN , Colombia",6.2640300142877,-75.6028300037621
"CR 38 26 491 URBANIZACION PORTAL DE SAN DIEGO MEDELLIN , Colombia",6.22983997977796,-75.5665599999794
"CR 65 52 B SUR 58 URBANIZACION CELESTE PH MEDELLIN , Colombia",6.24589000000003,-75.5745699999999
"CL 70 SUR 38 358 EDIFICIO LYRA PH SABANETA , Colombia",6.14983043864359,-75.6138595842069
"CR 27 A 36 SUR 150 ENVIGADO , Colombia",6.16551063648062,-75.5707478582154
"CL 16 A 43 B 126 CONJUNTO RESIDENCIAL PARQUES DE VILLA CARLOTA MEDELLIN , Colombia",6.2183100014079,-75.5709299890189
"CR 93 50 A 91 UNIDAD RESIDENCIAL CALASANZ AZUL PH MEDELLIN , Colombia",6.26912831495182,-75.6042182022069
"CL 61 75 116 CONJUNTO USO MIXTO PIZARRA PH MEDELLIN , Colombia",6.26886291352166,-75.5905907153046
"CR 96 C 50 A 280 CONJUNTO RESIDENCIAL MONTEPARAISO MEDELLIN , Colombia",6.24589000000003,-75.5745699999999
"CR 76 A 53 35 CONJUNTO DE USO MIXTO JARDIN DE COLORES MEDELLIN , Colombia",6.26475999423525,-75.5900800393848
"CL 23 41 20 UNIDAD RESIDENCIAL GUADUAL PH MEDELLIN , Colombia",6.2219500104999,-75.5670599805038
"CR 33 43 63 EDIFICIO CAMINOS DE SAN PATRICIO MEDELLIN , Colombia",6.23823151853095,-75.5569285271494
"CL 52 71 60 URBANIZACION PORTOVELHO DE LOS COLORES MEDELLIN , Colombia",6.264689491072,-75.5949741273954
"CR 82 A 30 61 MEDELLIN , Colombia",6.23155735330996,-75.6044477639308
"CR 93 50 A 91 CALASANZ AZUL MEDELLIN , Colombia",6.26912831495182,-75.6042182022069
"CR 46 63 58 MEDELLIN , Colombia",6.25835001760086,-75.5589700190159
"CR 76 53 89 URBANIZACION  PARQUE DE LOS COLORES MEDELLIN , Colombia",6.26482998312676,-75.5898900216398
"CL 27 SUR 28 121 ENVIGADO , Colombia",6.17680000894553,-75.5761199796461
"CR 54 A 75 SUR 10 URBANIZACION ITAGUI , Colombia",6.16408183254486,-75.6362322618168
"CR 96 C 50 A 280 CONJUNTO RESIDENCIAL MONTEPARAISO MEDELLIN , Colombia",6.24589000000003,-75.5745699999999
"CR 93 50 A 91 UNIDAD RESIDENCIAL CALASANZ AZUL PH MEDELLIN , Colombia",6.26912831495182,-75.6042182022069
"CR 96 C 50 A 280 CONJUNTO RESIDENCIAL MONTEPARAISO MEDELLIN , Colombia",6.24589000000003,-75.5745699999999
"CL 37 B SUR 27 D 84 URBANIZACION CUBIK PH ENVIGADO , Colombia",6.15970904785964,-75.5744961981571
"CR 96 C 50 A 280 CONJUNTO RESIDENCIAL MONTEPARAISO MEDELLIN , Colombia",6.24589000000003,-75.5745699999999
"CR 96 C 50 A 280 CONJUNTO RESIDENCIAL MONTEPARAISO MEDELLIN , Colombia",6.24589000000003,-75.5745699999999
"CR 45 68 SUR 20 EDIFICIO TORRE VERONA PH SABANETA , Colombia",6.15233689757987,-75.6149110846465
"CR 76 A 53 35 CONJUNTO DE USO MIXTO JARDIN DE COLORES MEDELLIN , Colombia",6.26475999423525,-75.5900800393848
"CR 76 53 89 URBANIZACION  PARQUE DE LOS COLORES MEDELLIN , Colombia",6.26482998312676,-75.5898900216398
"CR 43 A 63 SUR 120 CONJUNTO DE USO MIXTO MISONI PH SABANETA , Colombia",6.15323174493686,-75.6102089719282
"CR 73 52 45 MEDELLIN , Colombia",6.26184221705986,-75.5881064028915
"CL 36 SUR 27 10 URBANIZACION ENTREPARQUES APARTAMENTOS PH ENVIGADO , Colombia",6.16714733082004,-75.5693904216791
"CR 46 63 A 12 URBANIZACION PRADO DE SAN NICOLAS MEDELLIN , Colombia",6.25876502658183,-75.5588099246653
"CL 65 90 90 URBANIZACION PENINSULA CONDOMINIO PH MEDELLIN , Colombia",6.27996000000007,-75.59978
"CL 29 C 35 58 UNIDAD RESIDENCIAL SIERRA MORENA MEDELLIN , Colombia",6.22848241957222,-75.564970751471
"CR 73 52 65 CONJUNTO DE USO MIXTO CAMINO DE COLORES MEDELLIN , Colombia",6.26299829472004,-75.587201048546
"CL 65 90 90 URBANIZACION PENINSULA CONDOMINIO PH MEDELLIN , Colombia",6.27996000000007,-75.59978
"DG 55 34 04 BELLO , Colombia",6.34068988543976,-75.542076569404
"CR 75 DA 2 B SUR 230 CONJUNTO RESIDENCIAL LOS CABOS PH MEDELLIN , Colombia",6.20560365937894,-75.5992958620104
"CL 50 A 86 445 MEDELLIN , Colombia",6.26846001775398,-75.6052399685631
"CR 27 D 27 SUR 164 AMARELLO ENVIGADO , Colombia",6.17288397567798,-75.5714526755074
"CR 47 52 SUR 110 SABANETA , Colombia",6.15978170076147,-75.6060849660474
"CL 49 51 31 BELLO , Colombia",6.33347465191058,-75.5593136401137
"CR 99 48 09 MEDELLIN , Colombia",6.25937998586305,-75.6134300099748
"CR 74 52 55 URBANIZACION OASIS DE COLORES MEDELLIN , Colombia",6.263360223302,-75.588482678293
"CL 70 SUR 38 358 EDIFICIO LYRA PH SABANETA , Colombia",6.14983043864359,-75.6138595842069
"CR 75 DA 2 B SUR 320 CONJUNTO RESIDENCIAL LOS CABOS PH MEDELLIN , Colombia",6.20550999706867,-75.5993100235235
"CL 61 75 116 CONJUNTO DE USO MIXTO PIZARRA PH MEDELLIN , Colombia",6.26886291352166,-75.5905907153046
"CR 27 B 37 B SUR 80 CONJUNTO RESIDENCIAL MUGA PH ENVIGADO , Colombia",6.1599241340495,-75.5758326282048
"CR 27 D 27 SUR 164 URBANIZACION AMARELLO ENVIGADO , Colombia",6.17288397567798,-75.5714526755074
"CR 46 63 A 12 EDIFICIO PRADOS DE SAN NICOLAS MEDELLIN , Colombia",6.25876502658183,-75.5588099246653
"CR 87 D 46 12 MEDELLIN , Colombia",6.25543134413827,-75.6046763196561
"CR 96 C 50 A 280 MEDELLIN , Colombia",6.28874504067411,-75.5593749068488
"CL 99 SUR 49 D 73 URBANIZACION SAUCES DEL SUR LA ESTRELLA , Colombia",6.12226020523116,-75.6341157758445
"CL 48 F SUR 40 55 URBANIZACION PUERTO LUNA PH ENVIGADO , Colombia",6.15748798918905,-75.5981320747007
"CR 28 29 145 CONJUNTO RESIDENCIAL SANDIEGO CAMPESTRE MEDELLIN , Colombia",6.23349000000007,-75.56834
"CR 75 DA 2 B SUR 320 CONJUNTO RESIDENCIAL LOS CABOS PH MEDELLIN , Colombia",6.20550999706867,-75.5993100235235
"CL 63 39 80 EDIFICIO TORRE ANGEL PH MEDELLIN , Colombia",6.25443001103328,-75.5543899794828
"CR 32 16 120 EDIFICIO LOS PELICANOS PH MEDELLIN , Colombia",6.21657000212771,-75.5619699859815
"CL 70 SUR 38 358 EDIFICIO LYRA PH SABANETA , Colombia",6.14983043864359,-75.6138595842069
"CL 70 SUR 38 358 URBANIZACION LYRA PH SABANETA , Colombia",6.14983043864359,-75.6138595842069
"CR 96 C 50 A 280 CONJUNTO RESIDENCIAL MONTEPARAISO MEDELLIN , Colombia",6.24589000000003,-75.5745699999999
"TV 39 CIR 76 32 EDIFICIO ZAMORANO MEDELLIN , Colombia",6.24638887413144,-75.5976899692778
"CR 69 C 30 A 21 MEDELLIN , Colombia",6.23263999644324,-75.5910100115421
"CL 53 73 51 MEDELLIN , Colombia",6.26258051178064,-75.588191689631
"CR 96 C 50 A 280 CONJUNTO RESIDENCIAL MONTEPARAISO MEDELLIN , Colombia",6.24589000000003,-75.5745699999999
"CL 76 SUR 46 22 URBANIZACION VIGO APARTAMENTOS PH SABANETA , Colombia",6.15040833127399,-75.6204761455571
"CL 54 39 05 EDIFICIO ARTEMISA PH MEDELLIN , Colombia",6.24796001997215,-75.5583200024247
"CR 33 43 63 MEDELLIN , Colombia",6.23823151853095,-75.5569285271494
"CL 78 SUR 40 211 URBANIZACION PARQUES DE SAN REMO SABANETA , Colombia",6.14549561985257,-75.6222031595206
"CR 81 A 37 D 26 MEDELLIN , Colombia",6.24650001816754,-75.6031099593281
"CR 84 26 B 44 MEDELLIN , Colombia",6.22881596072148,-75.606852259191
"CR 75 DA 2 B SUR 320 CONJUNTO RESIDENCIAL LOS CABOS PH MEDELLIN , Colombia",6.20550999706867,-75.5993100235235
"CL 64 BC 103 93 TORRE 9 URBANIZACION VILLA SURAMERICANA MEDELLIN , Colombia",6.25515000000007,-75.58408
"CL 38 88 05 ED SANTA MARIA MEDELLIN , Colombia",6.24821998469915,-75.6093699837147
"CL 35 C 87 A 65 MEDELLIN , Colombia",6.24552998051306,-75.6121599840057
"CR 27 36 SUR 159 CONJUNTO RESIDENCIAL BALTICO PH ENVIGADO , Colombia",6.16391518936987,-75.5695795475836
"CR 72 26 A 54 MEDELLIN , Colombia",6.22838999434765,-75.5926100330393
"CR 52 89 15 EDIFICIO TORRE LUNA PH MEDELLIN , Colombia",6.28138000903715,-75.5636900363321
"CL 9 B SUR 79 A 221 URBANIZACION RODEO VERDE MEDELLIN , Colombia",6.20225843192776,-75.5992790823403
"CR 27 D 34 DD SUR 44 CONJUNTO RESIDENCIAL REFUGIO VERDE ENVIGADO , Colombia",6.17012491275361,-75.5756963826992
"CR 72 A 73 45 EDIFICIO PILARICA BLUE PH MEDELLIN , Colombia",6.27409001638837,-75.5823299640707
"CR 54 75 AA SUR 16 LA ESTRELLA , Colombia",6.16148145365416,-75.6364394516424
"CL 27 40 46 CONJUNTO RESIDENCIAL BOSQUES DEL GUAMAL MEDELLIN , Colombia",6.20906000000002,-75.55296
"CR 38 26 385 CONJUNTO RESIDENCIAL PUNTA DE PIEDRA MEDELLIN , Colombia",6.22838592743723,-75.5666490619403
"CR 76 A 53 35 CONJUNTO DE USO MIXTO JARDIN DE COLORES MEDELLIN , Colombia",6.26475999423525,-75.5900800393848
"CR 81 A 48 B 51 EDIFICIO PALMA SORIANO MEDELLIN , Colombia",6.22872936431021,-75.6031514315804
"CR 97 AD 64 AE 23 CA 202 MEDELLIN , Colombia",6.28345953031881,-75.6084136534714
"CL 16 A 43 B 126 URB PARQUES DE VILLA CARLOTA MEDELLIN , Colombia",6.2183100014079,-75.5709299890189
"CR 76 A 53 215 URBANIZACION PLAZA DE COLORES MEDELLIN , Colombia",6.26562999387534,-75.5895199606146
"CR 72 B 78 B 85 URBANIZACION SENDEROS DEL PALMAR MEDELLIN , Colombia",6.27915000369732,-75.581609958588
"CL 69 SUR 45 40 TORRE MEDITERRANEO SABANETA , Colombia",6.15233253340272,-75.615583730132
"CL 27 D SUR 27 C 51 TIERRA GRATA CUMBRES PH ENVIGADO , Colombia",6.17180816440405,-75.5712488099846
"CR 46 B 74 SUR 61 LOCAL SABANETA , Colombia",6.15105326184813,-75.6193037546976
"TV 36 CIR 72 114 EDIFICIO TORRE MARIA MEDELLIN , Colombia",6.24099000647711,-75.595459963938
"CL 32 A 65 B 12  ED MONETT MEDELLIN , Colombia",6.23565999615735,-75.5841400360615
"CL 20 A 77 15  MEDELLIN , Colombia",6.22492998662635,-75.5980700047678
"CL 54 85 40 URBANIZACION SENDEROS DE LA 80 MEDELLIN , Colombia",6.24589000000003,-75.5745699999999
"CR 28 29 145  SAN DIEGO CAMPESTRE MEDELLIN , Colombia",6.23349000000007,-75.56834
"CL 76 80 205 CONJUNTO RESIDENCIAL HUNGRIA PH MEDELLIN , Colombia",6.27723000304644,-75.5915399992799
"CR 46 B 74 SUR 67 SABANETA , Colombia",6.15101651541659,-75.619333046496
"CR 96 C 50 A 280 CONJUNTO RESIDENCIAL MONTEPARAISO MEDELLIN , Colombia",6.24589000000003,-75.5745699999999
"CL 57 D 85 D 129 CA COLINAS DE CALASANZ MEDELLIN , Colombia",6.27237998241203,-75.600520035066
"CL 37 77 30 EDIFICIO SAMBAJ MEDELLIN , Colombia",6.24466999724724,-75.5991800202053
"CL 9 B SUR 79 A 221 URB RODEO VERDE MEDELLIN , Colombia",6.20225843192776,-75.5992790823403
"CL 47 73 25 CA MEDELLIN , Colombia",6.25321444522229,-75.5920062793034
"CR 73 52 65 CONJUNTO DE USO MIXTO CAMINO DE COLORES MEDELLIN , Colombia",6.26299829472004,-75.587201048546
"CR 75 DA 2 B SUR 320 CONJUNTO RESIDENCIAL LOS CABOS PH MEDELLIN , Colombia",6.20550999706867,-75.5993100235235
"CR 75 DA 2 B SUR 320 CONJUNTO RESIDENCIAL LOS CABOS PH MEDELLIN , Colombia",6.20550999706867,-75.5993100235235
"CR 77 38 122  TORRE LAURELES MEDELLIN , Colombia",6.24454944257843,-75.5987796996556
"CL 60 75 150 CIUDADELA RIBERA DEL VALLE MEDELLIN , Colombia",6.26930100450037,-75.5917089387321
"CR 46 63A 12 EDIFICIO PRADO DE SAN NICOLAS MEDELLIN , Colombia",6.25876502658183,-75.5588099246653
"CR 28 29 85 CONJUNTO RESIDENCIAL RESERVA DE SAN DIEGO TORRE 1 SUBETAPA 9 MEDELLIN , Colombia",6.23349000000007,-75.56834
"CL 9 B SUR 79 A 221 URBANIZACION RODEO VERDE MEDELLIN , Colombia",6.20225843192776,-75.5992790823403
"CR 38 26 491 URBANIZACION PORTAL DE SAN DIEGO MEDELLIN , Colombia",6.22983997977796,-75.5665599999794
"CR 75 D A 2 B SUR 320 CONJUNTO RESIDENCIAL LOS CABOS PH MEDELLIN , Colombia",6.20550999706867,-75.5993100235235
"CR 27 36 SUR 159 CONJUNTO RESIDENCIAL BALTICO PH ENVIGADO , Colombia",6.16391518936987,-75.5695795475836
"CR 75 DA 2 B SUR 320 CONJUNTO RESIDENCIAL LOS CABOS PH MEDELLIN , Colombia",6.20550999706867,-75.5993100235235
"CL 49 E 83 A 196 CONJUNTO RESIDENCIAL SOL NACIENTE PH MEDELLIN , Colombia",6.2640300142877,-75.6028300037621
"CR 75 DA 2 B SUR 320 CONJUNTO RESIDENCIAL LOS CABOS P.H MEDELLIN , Colombia",6.20550999706867,-75.5993100235235
"CL 76 SUR 46 22 URBANIZACION VIGO APARTAMENTOS ETAPA PH SABANETA , Colombia",6.15040833127399,-75.6204761455571
"CR 27 B 37 B SUR 80 CONJUNTO RESIDENCIAL MUGA PH ENVIGADO , Colombia",6.1599241340495,-75.5758326282048
"CL 12 C SUR 39 153 LA GRUTA DEL PROBLADO PH MEDELLIN , Colombia",6.19177000419785,-75.5750699786353
"CR 80 B 36 27 MEDELLIN , Colombia",6.24453440525247,-75.6019032106131
"CL 61 SUR 43 A 32 URBANIZACION SERRANA APARTAMENTOS PH SABANETA , Colombia",6.15487522083996,-75.6089750712744
"CR 74 53 55 NUEVO MUNDO MEDELLIN , Colombia",6.26354000822806,-75.5884699596038
"CQ 3 66 B 165  EDIFICIO NANTES MEDELLIN , Colombia",6.24468955775869,-75.5868877365648
"CL 27 SUR 27 D 79  FARO DEL ESMERALDAL ENVIGADO , Colombia",6.17494792996993,-75.5729204637849
"CR 73 52 65 CONJUNTO DE USO MIXTO CAMINO DE COLORES MEDELLIN , Colombia",6.26299829472004,-75.587201048546
"CL 74 72 A 44  URB AGUA MARINA MEDELLIN , Colombia",6.27427999222385,-75.5827799884522
"CR 38 26 491 URBANIZACION PORTAL DE SAN DIEGO MEDELLIN , Colombia",6.22983997977796,-75.5665599999794
"CL 27 SUR 27 B 87 UNIDAD RESIDENCIAL AREKA PH ENVIGADO , Colombia",6.17431839845781,-75.5705832582844
"CR 73 52 65 CONJUNTO DE USO MIXTO CAMINO DE COLORES MEDELLIN , Colombia",6.26299829472004,-75.587201048546
"CL 76 SUR 46 22 1915 URBANIZACION VIGO PRIMERA ETAPA SABANETA , Colombia",6.15040833127399,-75.6204761455571
"CL 61 75 116  URB PIZARRA MEDELLIN , Colombia",6.26886291352166,-75.5905907153046
"CR 82 33 AA 71 EDIFICIO SANTARIA PH MEDELLIN , Colombia",6.2407299998406,-75.6046399919338
"CR 80 AA 36 52 MEDELLIN , Colombia",6.24471002083492,-75.6012500150135
"CR 73 52 65 AP CAMINO DE COLORES 1802 MEDELLIN , Colombia",6.26219001890261,-75.5878999901879
"CL 75 72 B 110 URB ALMENDRA MEDELLIN , Colombia",6.27529998602127,-75.5838999783545
"CL 75 72 B 55 CONJUNTO RESIDENCIAL PLAZA PILARICA PH MEDELLIN , Colombia",6.27496999049325,-75.583550033897
"CR 71 52 70  URB COLORS MEDELLIN , Colombia",6.26072025168542,-75.5859764164793
"CL 27 SUR 27 B 34 CONJUNTO RESIDENCIAL URBANIZACION SAO BENTO ENVIGADO , Colombia",6.17403269436952,-75.5702012980181
"CR 14 C 50 12 CA 201 MEDELLIN , Colombia",6.23439998656251,-75.5415100117873
"CR 84 A 48 BB 75 CONJUNTO RESIDENCIAL DOÑANA MEDELLIN , Colombia",6.26109001983939,-75.6034299803914
"CR 73 52 65 CONJUNTO DE USO MIXTO CAMINO DE COLORES MEDELLIN , Colombia",6.26299829472004,-75.587201048546
"CL 76 SUR 46 22 URBANIZACION VIGO APARTAMENTOS PH SABANETA , Colombia",6.15040833127399,-75.6204761455571
"CL 73 73 A 60 EDIFICIO AVENIDA DEL CERRO PH MEDELLIN , Colombia",6.27283000679353,-75.5853600220687
"CR 75 DA 2 B SUR 320 CONJUNTO RESIDENCIAL LOS CABOS PH MEDELLIN , Colombia",6.20550999706867,-75.5993100235235
"CL 57 69 27 RINCON DEL BOSQUE PH BELLO , Colombia",6.34864428578793,-75.5607153262792
"CL 6 C SUR 84 C 45 UNIDAD RESIDENCIAL JARDINES DEL RODEO MEDELLIN , Colombia",6.20785000000006,-75.59099
"CR 81 45 31 MEDELLIN , Colombia",6.2527700170189,-75.602170012706
"CR 75 DA 2 B SUR 320 CONJUNTO RESIDENCIAL LOS CABOS PH MEDELLIN , Colombia",6.20550999706867,-75.5993100235235
"CL 9 B SUR 79 A 221 URBANIZACION RODEO VERDE PH MEDELLIN , Colombia",6.20225843192776,-75.5992790823403
"CR 73 52 65  CONJUNTO DE USO MIXTO CAMINO DE COLORES MEDELLIN , Colombia",6.26299829472004,-75.587201048546
"CL 27 SUR 27 B 34 1502 CONJUNTO RESIDENCIAL URBANIZACION SAO BENTO ENVIGADO , Colombia",6.17403269436952,-75.5702012980181
"CR 46 63 A 12 MEDELLIN , Colombia",6.25853999343633,-75.5588400156977
"CL 65 SUR 42 B 65 ED PORTAL DEL CARMELO PH SABANETA , Colombia",6.1512159706662,-75.6104325500045
"CR 33 27 A 91 UNIDAD RESIDENCIAL CITTE PH MEDELLIN , Colombia",6.22587001706746,-75.5612400060339
"CR 80 A 36 28 MEDELLIN , Colombia",6.244539993929,-75.6008200233806
"CR 90 65 C 10 CONJUNTO RESIDENCIAL MIRADOR DE BARCELONA MEDELLIN , Colombia",6.27857578729551,-75.5983666700752
"CR 52 89 15 EDIFICIO TORRE LUNA PH MEDELLIN , Colombia",6.28138000903715,-75.5636900363321
"CR 81 A 33 AA 47 EDIFICIO XUA MEDELLIN , Colombia",6.24045000236502,-75.6040300408397
"CL 65 SUR 42 B 65 EDIFICIO PORTAL DEL CARMELO PH SABANETA , Colombia",6.1512159706662,-75.6104325500045
"CL 65 56 84  URBANIZACION PASEO DE SEVILLA MEDELLIN , Colombia",6.26633000000004,-75.5650699999999
"CR 42 7 A SUR 92 CONJUNTO RESIDENCIAL BALSOS DE OVIEDO PH MEDELLIN , Colombia",6.19539999691555,-75.5734500082086
"DG 74 B TV 32 EE 165 EDIFICIO EL CAMINITO MEDELLIN , Colombia",6.23641109607109,-75.5936661660174
"CR 76 53 89 URBANIZACION  PARQUE DE LOS COLORES MEDELLIN , Colombia",6.26482998312676,-75.5898900216398
"CR 27 A 37 SUR 80 CA 188 URBANIZACION VIENTOS DE LA COLINA ENVIGADO , Colombia",6.16188315292365,-75.5739367843399
"CL 49 D SUR 40 A 78  ENVIGADO , Colombia",6.15580806158816,-75.6007080270237
"CR 73 52 65 CONJUNTO DE USO MIXTO CAMINO DE COLORES MEDELLIN , Colombia",6.26299829472004,-75.587201048546
"CL 65 SUR 42 B 14 CONJUNTO RESIDENCIAL PASEO SAN FRANCISCO SABANETA , Colombia",6.1511710754154,-75.6100165971314
"CL 74 DG 73 27 EDIFICIO MIRADOR DE LA PILARICA TRES PH MEDELLIN , Colombia",6.27557000000007,-75.58447
"CR 28 29 145 CONJUNTO RESIDENCIAL SANDIEGO CAMPESTRE MEDELLIN , Colombia",6.23349000000007,-75.56834
"CL 8 84 F 25 CONJUNTO RESIDENCIAL OASIS DE LOS BERNAL MEDELLIN , Colombia",6.21934998604439,-75.6092099731831
"CR 89 44B 104 MEDELLIN , Colombia",6.25354436923386,-75.605449380241
"CR 38 26 491 URBANIZACION PORTAL DE SAN DIEGO MEDELLIN , Colombia",6.22983997977796,-75.5665599999794
"CL 76 SUR 46 22  URBANIZACION VIGO APARTAMENTOS PH SABANETA , Colombia",6.15040833127399,-75.6204761455571
"CR 52 G 75 SUR 120  ITAGUI , Colombia",6.17288000000002,-75.61148
"TV 39 A 72 8 EDIFICIO MONTES DE SEVINO MEDELLIN , Colombia",6.24186572623863,-75.5930665914387
"CR 52 89 15 1708  TORRE LUNA MEDELLIN , Colombia",6.28138000903715,-75.5636900363321
"CR 50 27 B 151  BELLO , Colombia",6.3174234326294,-75.5571012550755
"CL 71 91 C 57 URBANIZACION CLARO DE ROBLEDALES MEDELLIN , Colombia",6.28387667465065,-75.598484295683
"CL 51 74 53  AIRES DE VALENCIA 404 MEDELLIN , Colombia",6.24589000000003,-75.5745699999999
"CL 75 A 73 17 URBANIZACION TORRESELVA APARTAMENTOS PH MEDELLIN , Colombia",6.27628432055677,-75.5842675467612
"CL 49 E 83 A 200 URBANIZACION SOL CRECIENTE MEDELLIN , Colombia",6.26444998954629,-75.6031500248253
"CR 51 51 38  EDIFICIO SAN MIGUEL ITAGUI , Colombia",6.17303966488318,-75.608900662351
"CL 77 SUR 35 A 71 SABANETA , Colombia",6.14321566640414,-75.6187965104599
"CL 48 C 77 55 MEDELLIN , Colombia",6.25942000945072,-75.5934300346269
"CL 76 SUR 46 22  URBANIZACION VIGO APARTAMENTOS PH SABANETA , Colombia",6.15040833127399,-75.6204761455571
"CR 90 39 19 MEDELLIN , Colombia",6.2502499978292,-75.6100500075193
"CL 64 SUR 39 110 EDIFICIO RESIDENCIAL TORRE MOCCA PH SABANETA , Colombia",6.14841073512413,-75.6084517292804
"CR 43 64 73 EDIFICIO MANSION DE SAN PABLO PH MEDELLIN , Colombia",6.25827998679982,-75.5560599898715
"CL 9 B SUR 79 A 221 URBANIZACION RODEO VERDE MEDELLIN , Colombia",6.20225843192776,-75.5992790823403
"CQ 5 70 87 MEDELLIN , Colombia",6.24595501843546,-75.5863302974423
"CR 73 52 65 CONJUNTO DE USO MIXTO CAMINO DE COLORES MEDELLIN , Colombia",6.26299829472004,-75.587201048546
"CL 77 E 71 75 MEDELLIN , Colombia",6.27575998486753,-75.5814999880183
"CR 85 A 47 DD 25 EDIFICIO VILLA LAURA MEDELLIN , Colombia",6.25924000808003,-75.602929999867
"CL 61 SUR 43 A 32 URBANIZACION SERRANA APARTAMENTOS PH SABANETA , Colombia",6.15487522083996,-75.6089750712744
"CR 76 A 53 215 URBANIZACION PLAZA DE COLORES MEDELLIN , Colombia",6.26562999387534,-75.5895199606146
"CL 33 C 88 A 115 CONJUNTO LAURELES CAMPESTRE ETAPAS I II Y III PH MEDELLIN , Colombia",6.24166985299991,-75.6135316945018
"CL 61 75 116  CONJUNTO DE USO MIXTO PIZARRA PH MEDELLIN , Colombia",6.26886291352166,-75.5905907153046
"CR 56 C 83 DD SUR 52 CONJUNTO NATURAL AQUAVENTO PH ETAPA 1 LA ESTRELLA , Colombia",6.15199000000007,-75.6401
"CL 57 68 C 65 MULTIFAMILIAR UNIDAD CERRADA PEÑA VERDE BELLO , Colombia",6.3422829280529,-75.5740745840698
"CR 46 20 SUR 77 EDIFICIO PRIVATTO PH ENVIGADO , Colombia",6.18489683083874,-75.581545124221
"CL 73 73 A 60 EDIFICIO AVENIDA DEL CERRO PH MEDELLIN , Colombia",6.27283000679353,-75.5853600220687
"CR 59 70 349 CONJUNTO RESIDENCIAL CIUDADELA DEL VALLE ITAGUI , Colombia",6.17288000000002,-75.61148
"CL 6 C SUR 84 A 35 URBANIZACION CAMPIÑA DEL RODEO MEDELLIN , Colombia",6.20785000000006,-75.59099
"CL 27 SUR 27 21 CONJUNTO RESIDENCIAL LYON ENVIGADO , Colombia",6.17234131821957,-75.5680860839466
"CL 73 73 A 60  EDIFICIO AVENIDA DEL CERRO PH MEDELLIN , Colombia",6.27283000679353,-75.5853600220687
"CL 9 B SUR 79 A 221 URBANIZACION RODEO VERDE MEDELLIN , Colombia",6.20225843192776,-75.5992790823403
"CL 27 SUR 27 21 CONJUNTO RESIDENCIAL LYON ENVIGADO , Colombia",6.17234131821957,-75.5680860839466
"TV 32 D DG 74 C 26 EDIFICIO H2M MEDELLIN , Colombia",6.23678563032846,-75.5935442171709
"CR 75 DA 2 B SUR 320 CONJUNTO RESIDENCIAL LOS CABOS PH MEDELLIN , Colombia",6.20550999706867,-75.5993100235235
"CL 49 F 87 35 URBANIZACION CAMPO VERDE PH MEDELLIN , Colombia",6.2636339791227,-75.6059145533432
"CL 40 89 28  ED MIS ANCESTROS 302 MEDELLIN , Colombia",6.25018000893769,-75.609260013145
"CR 43 A 23 SUR 79 CONJUNTO RESIDENCIAL TORRE GUAYACAN ENVIGADO , Colombia",6.1819053826445,-75.5806418220021
"CR 46 76 SUR 69 CONJUNTO DE USO MIXTO CYPRUS PH SABANETA , Colombia",6.1471680619587,-75.622760153787
"CR 76 53 89 URBANIZACION  PARQUE DE LOS COLORES MEDELLIN , Colombia",6.26482998312676,-75.5898900216398
"CR 33 28 150 CONJUNTO RESIDENCIAL BOSQUES DE SAN DIEGO 1 MEDELLIN , Colombia",6.23349000000007,-75.56834
"CL 49 DD 86 35  EDIFICIO NUEVO PORTAL MEDELLIN , Colombia",6.26242001832576,-75.6044499741888
"CL 65 SUR 42 B 14 URBANIZACION PASEO DE SAN FRANCISCO SABANETA , Colombia",6.1511710754154,-75.6100165971314
"CL 36 81 A 48 MEDELLIN , Colombia",6.24442998144981,-75.603729968706
"CL 35 C 86 75  EDIFICIO SAHARA MEDELLIN , Colombia",6.24550998967398,-75.6111699974216
"CL 18 A SUR 22 35 EDIFICIO MANATIALES DE SAN LUCAS MEDELLIN , Colombia",6.18062999387301,-75.5616000087753
"CIR 4 66 B 184 EDIFICIO LA TORRE 1 MEDELLIN , Colombia",6.24531627268904,-75.5864910450069
"CL 74 72 A 126 EDIFICIO PIETRA SANTA 2 MEDELLIN , Colombia",6.27430999943722,-75.5834799611864
"CR 76 53 90 URBANIZACION FUENTE DE COLORES PH MEDELLIN , Colombia",6.26406999596584,-75.5892400050486
"CR 72 A 73 45 EDIFICIO PILARICA BLUE PH MEDELLIN , Colombia",6.27409001638837,-75.5823299640707
"CL 49 AA 77 C 27 ED SANTA MARIA DE LOS CAMINOS MEDELLIN , Colombia",6.26114999235661,-75.5945299917807
"CR 73 52 65 CONJUNTO DE USO MIXTO CAMINO DE COLORES MEDELLIN , Colombia",6.26299829472004,-75.587201048546
"CR 41 57 SUR 53 URBANIZACION MOSTAZA PH SABANETA , Colombia",6.15526178506052,-75.6056846357795
"CL 29 29 31 URBANIZACION GUAYACANES DE SAN DIEGO MEDELLIN , Colombia",6.22681834449577,-75.567617184634
"CL 12 A 72 132 URBANIZACION LA INMACULADA ZONA II MEDELLIN , Colombia",6.24589000000003,-75.5745699999999
"CL 64 SUR 39 211 SANTIVARI PH SABANETA , Colombia",6.14916107676577,-75.6089858410463
"CR 76 A 53 A 215 URBANIZACION PLAZA DE COLORES MEDELLIN , Colombia",6.26562999387534,-75.5895199606146
"CL 27 D SUR 27 B 101 UNIDAD RESIDENCIAL CAMINO DE CUMBRES PH ENVIGADO , Colombia",6.16921146853537,-75.5716765092972
"CR 38 75 B SUR 115 URBANIZACION LA VEGA  PARQUE RESIDENCIAL PH SABANETA , Colombia",6.14358436069849,-75.6167888441448
"CR 75 DA 2 B SUR 320 CONJUNTO RESIDENCIAL LOS CABOS PH MEDELLIN , Colombia",6.20550999706867,-75.5993100235235
"CR 73 52 65 CONJUNTO DE USO MIXTO CAMINO DE COLORES MEDELLIN , Colombia",6.26299829472004,-75.587201048546
"CL 49 DD 86 35 EDIFICIO NUEVO PORTAL MEDELLIN , Colombia",6.26242001832576,-75.6044499741888
"CIR 76 CL 38 105 EDIFICIO PRIMAVERA DE LAURELES 2 MEDELLIN , Colombia",6.24613961678131,-75.5975708342568
"CR 81 4 G 65 TORRE 2 URBANIZACION MIRADOR DE LOS BERNAL MEDELLIN , Colombia",6.22050705986023,-75.6027224329403
"CL 64 D 94 B 13 MEDELLIN , Colombia",6.28169001372609,-75.6045000141507
"CL 65 90 90 URBANIZACION PENINSULA CONDOMINIO PH MEDELLIN , Colombia",6.27996000000007,-75.59978
"CR 77 33 A 30 EDIFICIO LAURELES DEL PINAR MEDELLIN , Colombia",6.23987999103957,-75.5975700242434
"CR 81 C 49 F 50 EDIFICIO BELOHORIZONTE MEDELLIN , Colombia",6.26388002013037,-75.5998000295832
"CL 9 B SUR 79 A 221 URBANIZACION RODEO VERDE PH MEDELLIN , Colombia",6.20225843192776,-75.5992790823403
"CQ 72 TV 35 30  EDIFICIO MAKARELA PH MEDELLIN , Colombia",6.23983303290667,-75.5950558386439
"CL 77 SUR 35 15 CONJUNTO RESIDENCIAL SABANA ALTA PH SABANETA , Colombia",6.14101840153464,-75.6182398094002
"CR 78 34 26  MEDELLIN , Colombia",6.24087001953315,-75.5983200369395
"CL 18 A SUR 22 35 EDIFICIO MANANTIAL DE SAN LUCAS MEDELLIN , Colombia",6.18062999387301,-75.5616000087753
"CL 56 SUR 40 B 22 EDIFICIO TORREON DE SABANETA PH SABANETA , Colombia",6.15444032165745,-75.6036467537897
"CL 9 B SUR 79 A 221 URBANIZACION RODEO VERDE PH MEDELLIN , Colombia",6.20225843192776,-75.5992790823403
"CL 84 58 320 ITAGUI , Colombia",6.19399504326005,-75.5980049192896
"CL 9 B SUR 79 A 221 URBANIZACION RODEO VERDE MEDELLIN , Colombia",6.20225843192776,-75.5992790823403
"CR 84 46 12  ED MIRADOR DEL PARQUE MEDELLIN , Colombia",6.30412004948785,-75.5829999295916
"CR 41 24 131 UNIDAD RESIDENCIAL CALIFORNIA DE EL POBLADO MEDELLIN , Colombia",6.20992124983384,-75.5687704212051
"CR 76 A 53 35 CONJUNTO DE USO MIXTO JARDIN DE COLORES MEDELLIN , Colombia",6.26475999423525,-75.5900800393848
"CL 50 A 96 C 165 URBANIZACION AMANECERES VIS PH MEDELLIN , Colombia",6.24589000000003,-75.5745699999999
"CL 70 SUR 46 54 ED BALCONES DE LA 70 SABANETA , Colombia",6.15281854912004,-75.6168633952916
"TV 36 72 114  EDIFICIO TORRE MARIA MEDELLIN , Colombia",6.24099000647711,-75.595459963938
"CIR 4 CR 66 B 184 EDIFICIO LA TORRE 1 MEDELLIN , Colombia",6.24531627268904,-75.5864910450069
"CR 75 63 65 PUERTA MAYOR PH MEDELLIN , Colombia",6.27243945193884,-75.5709750224498
"CR 27 D 34 DD SUR 44  URB REFUGIO VERDE ENVIGADO , Colombia",6.17012491275361,-75.5756963826992
"CR 76 53 89  URB  PARQUE DE COLORES MEDELLIN , Colombia",6.26482998312676,-75.5898900216398
"CR 81 A 37 D 25 EDIFICIO ALPHAPARK PH MEDELLIN , Colombia",6.24652998347139,-75.6032200137168
"CL 48 F SUR 40 55 URBANIZACION PUERTO LUNA PH ENVIGADO , Colombia",6.15748798918905,-75.5981320747007
"CL 34 C 88 B 55 CONJUNTO RESIDENCIAL PLAZA CAMPESTRE MEDELLIN , Colombia",6.24306000000007,-75.6155699999999
"CL 12 43 D 67 MEDELLIN , Colombia",6.21368998019662,-75.572249971131
"CR 93 50 A 91 UNIDAD RESIDENCIAL CALASANZ AZUL PH MEDELLIN , Colombia",6.26912831495182,-75.6042182022069
"CL 17 37 A 80  PROVIDENCIA DE CASTROPOLO PH MEDELLIN , Colombia",6.21703000097398,-75.566339975021
"CL 34 C 88 B 55 CONJUNTO RESIDENCIAL PLAZA CAMPESTRE MEDELLIN , Colombia",6.24306000000007,-75.6155699999999
"CR 73 53 56 URBANIZACION ARBOLEDA DE COLORES MEDELLIN , Colombia",6.26274000000006,-75.5873
"CL 34 C 88 B 66 CONJUNTO RESIDENCIAL RIO CAMPESTRE PH MEDELLIN , Colombia",6.24371999234134,-75.6149700170453
"CR 96 C 50 A 280 CONJUNTO RESIDENCIAL MONTEPARAISO MEDELLIN , Colombia",6.24589000000003,-75.5745699999999
"CL 61 75 116 URB PIZARRA MEDELLIN , Colombia",6.26886291352166,-75.5905907153046
"CR 46 63 A 12 EDIFICIO PRADO DE SAN NICOLAS MEDELLIN , Colombia",6.25876502658183,-75.5588099246653
"CL 65 SUR 42 B 65 EDIFICIO PORTAL DEL CARMELO PH SABANETA , Colombia",6.1512159706662,-75.6104325500045
"CL 19 43 G 155 CONJUNTO DE USO MIXTO TORRES DEL RIO PH MEDELLIN , Colombia",6.24589000000003,-75.5745699999999
"CL 8 84 B 65 TORRE 1 CONJUNTO RESIDENCIAL FRONTERA DE LOS BERNAL MEDELLIN , Colombia",6.21975998683821,-75.6080199943893
"CL 50 A 96 C 165 URBANIZACION AMANECERES VIS PH MEDELLIN , Colombia",6.24589000000003,-75.5745699999999
"CR 96 C 50 A 280  URB MONTEPARAISO MEDELLIN , Colombia",6.24589000000003,-75.5745699999999
"CR 76 53 215 URBANIZACION LOS COLORES TERCERA ETAPA MEDELLIN , Colombia",6.2651101097169,-75.588761738344
"CL 49 DD 86 35  ED NUEVO PORTAL MEDELLIN , Colombia",6.26242001832576,-75.6044499741888
"CL 2 79 35 UNIDAD MIRADOR DE LA MOTA MEDELLIN , Colombia",6.21242455104764,-75.6006360393083
"CR 28 29 85 CONJUNTO RESIDENCIAL RESERVA DE SAN DIEGO PH MEDELLIN , Colombia",6.23349000000007,-75.56834
"CR 72 A 73 45  EDIFICIO PILARICA BLUE PH MEDELLIN , Colombia",6.27409001638837,-75.5823299640707
"CL 63 80 A 126  EDIFICIO MIRADOR DE LA 80 MEDELLIN , Colombia",6.27358001948967,-75.5952800044768
"CR 27 D 27 SUR 164  URBANIZACION AMARELLO ENVIGADO , Colombia",6.17288397567798,-75.5714526755074
"CL 50 A 96 C 165 URBANIZACION AMANECERES VIS PH MEDELLIN , Colombia",6.24589000000003,-75.5745699999999
"CL 43 80 B 50  ED LA GRAN ESQUINA MEDELLIN , Colombia",6.24975001730479,-75.6018199844294
"CR 76 53 90 AP FUENTE DE COLORES 1705 MEDELLIN , Colombia",6.26406999596584,-75.5892400050486
"CR 85 B 35 39 EDIFICIO PORTAL DE SANTA RITA MEDELLIN , Colombia",6.24438999977167,-75.6090399881867
"CL 23 41 20 UNIDAD RESIDENCIAL GUADUAL PH MEDELLIN , Colombia",6.2219500104999,-75.5670599805038
"CL 51 74 53 CONJUNTO RESIDENCIAL AIRES DE VALENCIA PH MEDELLIN , Colombia",6.24589000000003,-75.5745699999999
"CL 76 80 205 CONJUNTO RESIDENCIAL HUNGRIA PH MEDELLIN , Colombia",6.27723000304644,-75.5915399992799
"CL 77 AC 75 165 CONJUNTO RESIDENCIAL FUENTE AZUL MEDELLIN , Colombia",6.20542000000006,-75.56718
"CL 84 58 50 EDIFICIO VILLA SOL PH ITAGUI , Colombia",6.19404224719191,-75.5979722542072
"CR 53 73 SUR 40 CONJUNTO RESIDENCIAL ENTREBOSQUES ITAGUI , Colombia",6.16563277597597,-75.6351168992535
"CL 37 B SUR 27 D 84 URBANIZACION CUBIK PH ENVIGADO , Colombia",6.15970904785964,-75.5744961981571
"CL 29 29 31 CR GUAYACANES DE SAN DIEGO MEDELLIN , Colombia",6.23349000000007,-75.56834
"CL 72 SUR 34 119 EDIFICIO MARAT SABANETA , Colombia",6.14481666671926,-75.6109652055832
"CQ 1 68 44  MEDELLIN , Colombia",6.24365966695411,-75.5876400795956
"CR 82 FF 76 E B 6 MEDELLIN , Colombia",6.27960494247013,-75.5904000325416
"CR 73 52 65 CONJUNTO DE USO MIXTO CAMINO DE COLORES MEDELLIN , Colombia",6.26299829472004,-75.587201048546
"CL 49 48 29 COPACABANA , Colombia",6.34641914326737,-75.5064653882764
"CL 77 SUR 35 A 71 CONJUNTO RESIDENCIAL MADEROS DEL CAMPO ETAPA II SABANETA , Colombia",6.14321566640414,-75.6187965104599
"CL 31 83 39 CONJUNTO RESIDENCIAL CASTILLO GRANDE MEDELLIN , Colombia",6.19131000000004,-75.5738699999999
"CR 27 AA 36 SUR 151 CONJUNTO RESIDENCIAL NATIVO FLORA ENVIGADO , Colombia",6.15846977376368,-75.5740508376596
"CL 70 SUR 38 358 EDIFICIO LYRA PH SABANETA , Colombia",6.14983043864359,-75.6138595842069
"CR 74 53 55 CONJUNTO INMOBILIARIO NUEVO MUNDO PH MEDELLIN , Colombia",6.26354000822806,-75.5884699596038
"CL 19 43 G 80  URB PLAZA DEL RIO MEDELLIN , Colombia",6.22229400858182,-75.5695325369338
"CR 48 17 A SUR 51  VEGAS DE ZUÑIGA MEDELLIN , Colombia",6.18886658876007,-75.5810262825577
"CR 33 27 A 91 UNIDAD RESIDENCIAL CITTE PH MEDELLIN , Colombia",6.22587001706746,-75.5612400060339
"CR 91 C 47 B 66 MEDELLIN , Colombia",6.25786001154123,-75.6083400154525
"CL 9 SUR 79 C 199 URBANIZACION PINAR DEL RODEO PH MEDELLIN , Colombia",6.20332397290472,-75.6025727736512
"CL 34 C 88 B 55 CONJUNTO RESIDENCIAL PLAZA CAMPESTRE MEDELLIN , Colombia",6.24306000000007,-75.6155699999999
"CL 52 74 74 ESTADIO DE LA PLAZA PH MEDELLIN , Colombia",6.25764000000004,-75.58448
"CL 27 SUR 27 B 34  URBANIZACION SAO BENTO ENVIGADO , Colombia",6.17403269436952,-75.5702012980181
"CL 77 SUR 35 A 71 MADEROS DEL CAMPO ETAPA II SABANETA , Colombia",6.14321566640414,-75.6187965104599
"CR 85 D 53 20 PUNTA LUNA MEDELLIN , Colombia",6.26918999770153,-75.6004499623554
"CR 43 A 16 B 50 CASTROPOLO IN MEDELLIN , Colombia",6.21752625727169,-75.5697924302413
"CL 77 SUR 35 A 71  URB MADEROS DEL CAMPO II SABANETA , Colombia",6.14321566640414,-75.6187965104599
"CR 35 A 77 SUR 113 CONJUNTO RESIDENCIAL ALAMEDA PH SABANETA , Colombia",6.14243441364267,-75.6140476973826
"CL 34 86 A 67 CONJUNTO RESIDENCIAL MULTIFAMILIAR GUADARRAMA 2 MEDELLIN , Colombia",6.24589000000003,-75.5745699999999
"CL 5 76A 201  MEDELLIN , Colombia",6.21717882899834,-75.6025693763771
"CL 42 108 A 215 URB SAN MICHEL MEDELLIN , Colombia",6.25557275241233,-75.6232889749384
"CR 46 22 A SUR 37  URBANIZACION CRISTALES DE ZUÑIGA PH ENVIGADO , Colombia",6.18370200696568,-75.5821679885432
"CR 31 29 71 BOSQUES DE SAN DIEGO 2 MEDELLIN , Colombia",6.23349000000007,-75.56834
"CR 45 68 SUR 24 ED TORRE VERONA SABANETA , Colombia",6.15231641694562,-75.6149330033372
"CR 72 A 73 45 EDIFICIO PILARICA BLUE PH MEDELLIN , Colombia",6.27409001638837,-75.5823299640707
"CL 9 SUR 79 C 151 URBANIZACION MIRADOR DE ARBOLEDA MEDELLIN , Colombia",6.20332397290472,-75.6025727736512
"CR 84 26 B 40 MEDELLIN , Colombia",6.22881323530591,-75.606852259191
"CL 76 SUR 46 22  URBANIZACION VIGO APARTAMENTOS SABANETA , Colombia",6.15040833127399,-75.6204761455571
"CL 36 79 41  EDIFICIO SARATOGA MEDELLIN , Colombia",6.24396998260355,-75.600000021793
"CL 9 B SUR 79 A 221 URBANIZACION RODEO VERDE MEDELLIN , Colombia",6.20225843192776,-75.5992790823403
"CL 65 SUR 39 235 URBANIZACION INDIGO PH SABANETA , Colombia",6.15459564445366,-75.6132484201119
"CL 75 SUR 52 G 40  URB ENTRE HOJAS LA ESTRELLA , Colombia",6.16391528137,-75.6376663682692
"CR 115 A 64 CC 4  URB BOSQUES DE LA MACARENA MEDELLIN , Colombia",6.23458197608722,-75.6334823193213
"CL 65 74 C 136  MEDELLIN , Colombia",6.26841201867649,-75.58711201682
"CR 97 B 64 AE 14 MEDELLIN , Colombia",6.28335631744872,-75.6085618367124
"CR 28 29 145 SAN DIEGO CAMPESTRE MEDELLIN , Colombia",6.23349000000007,-75.56834
"CL 37 B 81 A 13  EDIFICIO CACIQUE TONE MEDELLIN , Colombia",6.24491490019008,-75.6034619239175
"CL 75 SUR 52 G 40 URB ENTRE HOJAS LA ESTRELLA , Colombia",6.16391528137,-75.6376663682692
"CR 72 B 78 B 85 URBANIZACION SENDEROS DEL PALMAR MEDELLIN , Colombia",6.27915000369732,-75.581609958588
"CR 86 49 E 55  CONJUNTO RESIDENCIAL CALASANZ CAMPESTRE MEDELLIN , Colombia",6.26493332608945,-75.6035664754479
"CL 9 SUR 79 C 115  ARBOLEDA DEL RODEO MEDELLIN , Colombia",6.20332397290472,-75.6025727736512
"CL 1 75 BA 192 CA 114 UNIDAD RESIDENCIAL KALAMARI 1 CUARTA ETAPA MEDELLIN , Colombia",6.24589000000003,-75.5745699999999
"CR 52 89 15  TORRE LUNA MEDELLIN , Colombia",6.28138000903715,-75.5636900363321
"CR 59 A 69 C 09 URBANIZACION COLINA VERDE ITAGUI , Colombia",6.18564155832995,-75.6056675769859
"CL 27 SUR 27 92  URB TIERRA GRATA ESMERALDAL ENVIGADO , Colombia",6.17259788964589,-75.5684035993563
"CR 48 76 D SUR 34 URB VEGAS PLAZA SABANETA , Colombia",6.15241619873095,-75.6234032920391
"CR 76 53 89  URBANIZACION  PARQUE DE LOS COLORES MEDELLIN , Colombia",6.26482998312676,-75.5898900216398
"CR 81 4 G 65 URBANIZACION MIRADOR DE LOS BERNAL MEDELLIN , Colombia",6.22050705986023,-75.6027224329403
"CL 9 B SUR 79 A 221 URBANIZACION RODEO VERDE PH MEDELLIN , Colombia",6.20225843192776,-75.5992790823403
"CR 45 67 SUR 34 EDIFICIO BALCONES DE SANTA ANA SABANETA , Colombia",6.14546602772677,-75.621066946236
"CL 80 SUR 47 C 61 URB BALCONES DE LA HOLANDA SABANETA , Colombia",6.14796700531682,-75.6266108557231
"CL 51 A 72 39 ED ESCORIAL LA 82 MEDELLIN , Colombia",6.26060001377975,-75.5883999707123
"CR 31 16 295 EDIFICIO MARLYN MEDELLIN , Colombia",6.21790000061407,-75.561470005457
"CR 46 63 A 12 PRADOS DE SAN NICOLAS MEDELLIN , Colombia",6.25876502658183,-75.5588099246653
"CR 27 G 35 SUR 150  CONJUNTO RESIDENCIAL GUALI PH ENVIGADO , Colombia",6.17061003631475,-75.5765449421371
"CL 45 F 75 47 EDIFICIO CORINTO MEDELLIN , Colombia",6.25290999480193,-75.5932100096686
"CL 73 73 A 60 URB AVENIDA DEL CERRO MEDELLIN , Colombia",6.27283000679353,-75.5853600220687
"CL 37 B SUR 27 D 84 URBANIZACION CUBIK PH ENVIGADO , Colombia",6.15970904785964,-75.5744961981571
"CL 49 DD 86 35 EDIFICIO NUEVO PORTAL MEDELLIN , Colombia",6.26242001832576,-75.6044499741888
"CL 27 SUR 27 B 100 FARO DEL ESMERALDAL ENVIGADO , Colombia",6.17446651788182,-75.5705881124506
"CL 53 A 79 A 33  BALCON DE COLORES MEDELLIN , Colombia",6.2673899839946,-75.5954000333303
"CL 24 SUR 42 A 08 EDIFICIO ZUÑIGA CAMPESTRE PH ENVIGADO , Colombia",6.18040952033309,-75.5795318175959
"CL 70 SUR 38 358 EDIFICIO LYRA PH SABANETA , Colombia",6.14983043864359,-75.6138595842069
"CR 46 63 A 12 EDIFICIO PRADO DE SAN NICOLAS MEDELLIN , Colombia",6.25876502658183,-75.5588099246653
"CL 49 E 83 A 200 SOL CRECIENTE MEDELLIN , Colombia",6.26444998954629,-75.6031500248253
"AV 47 63 52 NIQUIA CAMACOL BELLO , Colombia",6.34258904399418,-75.5547957075146
"CL 42 D 82 50 EDIFICIO TORRES DE ALEJANDRIA MEDELLIN , Colombia",6.19880000000006,-75.569
"CR 33 29 105 UNIDAD INMOBILIARIA CERRADA HALCONES DE SAN DIEGO PH MEDELLIN , Colombia",6.23349000000007,-75.56834
"CR 27 A 36 SUR 150 BOSQUE ADENTRO ENVIGADO , Colombia",6.16551063648062,-75.5707478582154
"CR 93 50 A 91 UNIDAD RESIDENCIAL CALASANZ AZUL PH MEDELLIN , Colombia",6.26912831495182,-75.6042182022069
"CR 73 52 65 CONJUNTO DE USO MIXTO CAMINO DE COLORES MEDELLIN , Colombia",6.26299829472004,-75.587201048546
"CR 75 63 65 URBANIZACION PUERTA MAYOR PROPIEDAD HORIZONTAL MEDELLIN , Colombia",6.24589000000003,-75.5745699999999
"CR 47 52 SUR 110 CONJUNTO RESIDENCIAL TORRES DE MAYORCA PH SABANETA , Colombia",6.15978170076147,-75.6060849660474
"CL 70 A SUR 35 51  URB CIGARRAS SABANETA , Colombia",6.15071267038237,-75.6150602904012
"CR 81 45 31  ED ANDESTELLY MEDELLIN , Colombia",6.2527700170189,-75.602170012706
"CR 81 40 64 MEDELLIN , Colombia",6.24767998058707,-75.6023499721672
"CL 40 89 20 TORRE LUNA IV MEDELLIN , Colombia",6.25005686912128,-75.6091792879559
"CR 28 29 85 RESERVA DE SAN DIEGO MEDELLIN , Colombia",6.23349000000007,-75.56834
"CR 78 B 52 14 URB RENACER MEDELLIN , Colombia",6.26462999091699,-75.5943999884624
"CL 75 72 B 110  URBANIZACION ALMENDRA APARTAMENTOS MEDELLIN , Colombia",6.27529998602127,-75.5838999783545
"CL 61 75 153 URB BASALTO MEDELLIN , Colombia",6.26875129194393,-75.5906167905637
"CR 59 70 349 URB CIUDADELA DEL VALLE ITAGUI , Colombia",4.52730000000003,-75.70199
"CL 30 80 43  ED MULTIFAMILIAR LA 30 MEDELLIN , Colombia",6.23099999326793,-75.6011100372305
"CL 70 SUR 43 A 15 CONJUNTO RESIDENCIAL CANTOLUNA SABANETA , Colombia",6.15007604247056,-75.6145574015868
"CR 76 53 215  URBANIZACION LOS COLORES MEDELLIN , Colombia",6.2651101097169,-75.588761738344
"CL 61 75 116 CONJUNTO DE USO MIXTO PIZARRA PH MEDELLIN , Colombia",6.26886291352166,-75.5905907153046
"CL 37 B SUR 27 D 84 URBANIZACION CUBIK PH ENVIGADO , Colombia",6.15970904785964,-75.5744961981571
"CR 43 A 63 SUR 120 CONJUNTO DE USO MIXTO MISONI PH SABANETA , Colombia",6.15323174493686,-75.6102089719282
"CL 70 59 193 URB SENDERO VERDE ITAGUI , Colombia",6.17288000000002,-75.61148
"CR 76 A 53 35  URBANIZACION JARDIN DE COLORES MEDELLIN , Colombia",6.26475999423525,-75.5900800393848
"CR 41 57  SUR - 53 URB MOSTAZA SABANETA , Colombia",6.15526178506052,-75.6056846357795
"CL 4 SUR 43 AA 30 OFC 601  EDIFICIO FORMACOL MEDELLIN , Colombia",6.20465998826765,-75.5851300226455
"CL 57 68 C 65 MULTIFAMILIAR UNIDAD CERRADA PEÑA VERDE PH BELLO , Colombia",6.34034000000003,-75.55916
"CR 46 76 SUR 69 CONJUNTO DE USO MIXTO CYPRUS PH SABANETA , Colombia",6.1471680619587,-75.622760153787
"CR 33 28 150 CONJUNTO RESIDENCIAL BOSQUES DE SAN DIEGO PH MEDELLIN , Colombia",6.23349000000007,-75.56834
"CR 38 26 385 PUNTA PIEDRA MEDELLIN , Colombia",6.22838592743723,-75.5666490619403
"CL 49 E 83 A 196 CONJUNTO RESIDENCIAL SOL NACIENTE PH MEDELLIN , Colombia",6.2640300142877,-75.6028300037621
"CL 70 A SUR 35 51 URB CIGARRAS SABANETA , Colombia",6.15071267038237,-75.6150602904012
"CL 55 40 14 EDIFICIO TORRELIMA 1 PH MEDELLIN , Colombia",6.24939998902818,-75.5588400156977
"CL 37 B SUR 27 17 URBANIZACION BRUJAS CAMPESTRE PH ENVIGADO , Colombia",6.15934545496642,-75.5740131495791
"CR 63 32 E 39 CONDOMINIO PIE DEL CERRO PH MEDELLIN , Colombia",6.23737395950557,-75.5772861420729
"CR 77 60 70 CONJUNTO DE USO MIXTO CITRINO PH MEDELLIN , Colombia",6.26999087721246,-75.5909586103292
"CR 60 75 AA SUR 75 CA 177 C R PAMPLONA LA ESTRELLA , Colombia",6.1621864303996,-75.6424688455457
"KM 12 MAS 400 ASOCIACION DE USUARIOS LOS PAPIROS DE LAS PALMAS PARCELA 11 MEDELLIN , Colombia",6.24030000000005,-75.56505
"CL 3 B SUR 29 C 120 EDIFICIO LOS URALES MEDELLIN , Colombia",6.19676000261528,-75.5635799819434
"CL 12 C SUR 39 153 URB LA GRUTA DEL POBLADO MEDELLIN , Colombia",6.19177000419785,-75.5750699786353
"CR 46 C 80 SUR 155 CONJUNTO RESIDENCIAL AMONTE PH SABANETA , Colombia",6.14734110979694,-75.6239463248459
"CR 45 A 77 C SUR 15 URB GUADALAJARA SABANETA , Colombia",6.14615372114936,-75.6209727234588
"CL 27 SUR 27 B 34 URBANIZACION SAO BENTO PH ENVIGADO , Colombia",6.17403269436952,-75.5702012980181
"CR 27 AA 36 SUR 151 CONJUNTO RESIDENCIAL NATIVO FLORA ENVIGADO , Colombia",6.15846977376368,-75.5740508376596
"CR 39 E 48 F SUR 50  VOLGA DE LA CUENCA ENVIGADO , Colombia",6.15461503965271,-75.5979522198026
"CR 59 70 349  CONJUNTO RESIDENCIAL CIUDADELA DEL VALLE PH ITAGUI , Colombia",6.17288000000002,-75.61148
"CR 43 A 71  SUR 103 URB ALONDRA SABANETA , Colombia",6.14891073601351,-75.6154703413743
"CL 84 58 50 EDIFICIO VILLASOL PH ITAGUI , Colombia",6.19404224719191,-75.5979722542072
"CL 65 74 C 132 MEDELLIN , Colombia",6.26839596950726,-75.5871098764326
"CL 36 SUR 27 10 ENTRE PARQUES ENVIGADO , Colombia",6.16714733082004,-75.5693904216791
"CL 51 74 53 CONJUNTO RESIDENCIAL AIRES DE VALENCIA PH MEDELLIN , Colombia",6.24589000000003,-75.5745699999999
"CR 77 60 70  CONJUNTO DE USO MIXTO CITRINO PH MEDELLIN , Colombia",6.26999087721246,-75.5909586103292
"CL 70 A SUR 35 51 SABANETA , Colombia",6.15071267038237,-75.6150602904012
"CL 84 58 50 URB VILLASOL ITAGUI , Colombia",6.19404224719191,-75.5979722542072
"CL 75 SUR 52 G 40  CONJUNTO RESIDENCIAL ENTREHOJAS PH ITAGUI , Colombia",6.16415237614095,-75.6327661139294
"CR 77 43 38  TORRE GALILEA MEDELLIN , Colombia",6.24955560049315,-75.5958895325205
"CR 81 34 A 94  MEDELLIN , Colombia",6.24233999580254,-75.6026499604819
"CL 76 80 205 URB TORRES DE HUNGRIA MEDELLIN , Colombia",6.27723000304644,-75.5915399992799
"CR 77 60 70 CONJUNTO DE USO MIXTO CITRINO PH MEDELLIN , Colombia",6.26999087721246,-75.5909586103292
"CL 27 D SUR 28 80 URBANIZACION CORALES DE LA ABADIA ENVIGADO , Colombia",6.17469448544461,-75.575642940497
"DG 50 A AV 32 200 TO 2 CONJUNTO RESIDENCIAL HACIENDA NIQUIA PH BELLO , Colombia",6.33609122857116,-75.5499747871
"CR 75 DA 2 B SUR 320 URB LOS CABOS MEDELLIN , Colombia",6.20550999706867,-75.5993100235235
"CL 33 74 B 233 MEDELLIN , Colombia",6.23899000056041,-75.5925800258259
"CR 75 8 32 CONJUNTO RESIDENCIAL PLAZA RODEO PH MEDELLIN , Colombia",6.24306000000007,-75.6155699999999
"CL 27 SUR 27 B 34 CONJUNTO RESIDENCIAL URBANIZACION SAO BENTO ENVIGADO , Colombia",6.17403269436952,-75.5702012980181
"CL 77 SUR 35 A 71 MADEROS DEL CAMPO ETAPA II PH SABANETA , Colombia",6.14321566640414,-75.6187965104599
"CR 92 C 44 A 77 URB QUINTAS DEL DANUBIO MEDELLIN , Colombia",6.2550668620428,-75.6087332281398
"CL 61 SUR 43 A 32 SERRANA APARTAMENTOS PH SABANETA , Colombia",6.15487522083996,-75.6089750712744
"CL 73 73 A 60 EDIFICIO AVENIDA DEL CERRO PH MEDELLIN , Colombia",6.27283000679353,-75.5853600220687
"CL 40 101 A 243  NUEVA ANDALUCIA MEDELLIN , Colombia",6.2544899835505,-75.6196499688642
"CQ 2 68 102  MEDELLIN , Colombia",6.24433150568231,-75.5873403231613
"CR 38 75 B SUR 115 URB LA VEGA  PARQUE RESIDENCIAL PH SABANETA , Colombia",6.14358436069849,-75.6167888441448
"CR 76 53 79  URB PARAISO DE COLORES MEDELLIN , Colombia",6.26454998565119,-75.590069981101
"CR 46 76 SUR 69 CONJUNTO DE USO MIXTO CYPRUS PH SABANETA , Colombia",6.1471680619587,-75.622760153787
"CL 39 53 33 MEDELLIN , Colombia",6.24043998599073,-75.5747399831073
"CL 75 SUR 34 240 URBANIZACION ARAMUS SABANETA , Colombia",6.14395597783452,-75.6148906935152
"CL 23 41 70 URBANIZACION TRIGALES MEDELLIN , Colombia",6.222129020344,-75.5673596359782
"CL 37 B SUR 27 B 125 ENVIGADO , Colombia",6.1611399720752,-75.5760877998171
"CR 78 B 56 20 EDIFICIO CASCADA DE COLORES MEDELLIN , Colombia",6.26981998154419,-75.5940699929344
"CR 46 76 SUR 69 URB CYPRUS SABANETA , Colombia",6.15044377785934,-75.6210587040573
"CR 43 A 71 SUR 103 TORRE ALONDRA SABANETA , Colombia",6.14891073601351,-75.6154703413743
"CL 50 A 96 C 165 URBANIZACION AMANECERES VIS PH MEDELLIN , Colombia",6.24589000000003,-75.5745699999999
"CR 83 B 33 108 EDIFICIO CASTELLO MEDELLIN , Colombia",6.23971000604318,-75.6073299961199
"CL 70 59 193 CONJUNTO RESIDENCIAL SENDERO VERDE PH ITAGUI , Colombia",6.20542000000006,-75.56718
"CL 38 A 80 72 URB CIUDADELA DE LAURELES TO 7 MEDELLIN , Colombia",6.24653393189584,-75.6004074652597
"CL 38 B SUR 26 02 CONJUNTO RESIDENCIAL MONTEPIETRA PH ENVIGADO , Colombia",6.15699838117507,-75.5754489795599
"CR 41 57 SUR 01  URB CANELA SABANETA , Colombia",6.15542085685947,-75.6055213709552
"CL 38 A 80 72  CONJUNTO MULTIFAMILIAR CIUDADELA DE LOS LAURELES MEDELLIN , Colombia",6.24653393189584,-75.6004074652597
"CR 81 A 40 50 EDIFICIO SANTANA MEDELLIN , Colombia",6.24718000006266,-75.60306997765
"CL 70 SUR 38 358 EDIFICIO LYRA PH SABANETA , Colombia",6.14983043864359,-75.6138595842069
"CR 29 C 4SUR 130 CA 131 URB CAMPIÑAS DEL POBLADO MEDELLIN , Colombia",6.19452561572788,-75.5636176300584
"CR 41 57 SUR 01  URBANIZACION CANELA PH SABANETA , Colombia",6.15542085685947,-75.6055213709552
"CL 49 F 87 35 CAMPO VERDE PH MEDELLIN , Colombia",6.2636339791227,-75.6059145533432
"CR 38 26 501 MEDELLIN , Colombia",6.22988052106128,-75.5664911038076
"CL 52 C SUR 39 E 37 TORRE 5 U R CORAZON DE ENVIGADO ETAPA 1 ENVIGADO , Colombia",6.16395000000006,-75.5732599999999
"CR 28 29 145 CONJUNTO RESIDENCIAL SANDIEGO CAMPESTRE MEDELLIN , Colombia",6.23349000000007,-75.56834
"CL 75 SUR 53 148 URBANIZACION AGUAS DEL BOSQUE ITAGUI , Colombia",6.16472247315936,-75.6356740679601
"CL 9 B SUR 79 A 221 URBANIZACION RODEO VERDE PH MEDELLIN , Colombia",6.20225843192776,-75.5992790823403
"CR 58 77 50 URBANIZACION LAURELES DEL SUR ITAGUI , Colombia",3.91880000000003,-76.29457
"CR 59 70 349 CONJUNTO RESIDENCIAL CIUDADELA DEL VALLE ITAGUI , Colombia",6.17288000000002,-75.61148
"CL 75 SUR 52 G 40 URBANIZACION ENTREHOJAS APARTAMENTOS ITAGUI , Colombia",6.16415237614095,-75.6327661139294
"CR 77 60 70 CONJUNTO DE USO MIXTO CITRINO PH MEDELLIN , Colombia",6.26999087721246,-75.5909586103292
"CL 61 75 116 URB PIZARRA MEDELLIN , Colombia",6.26886291352166,-75.5905907153046
"CR 81 A 40 50 EDIFICIO SANTANA MEDELLIN , Colombia",6.24718000006266,-75.60306997765
"CR 24 46 49 MEDELLIN , Colombia",6.23703001823138,-75.5503899676494
"CR 41 57 SUR 01 URBANIZACION CANELA SABANETA , Colombia",6.15542085685947,-75.6055213709552
"CR 74 B 65 41  URB CAMINO DEL CERRO MEDELLIN , Colombia",6.26692998514834,-75.5865100191843
"CR 38 75 B SUR 115  PARQUE RESIDENCIAL LA VEGA SABANETA , Colombia",6.14358436069849,-75.6167888441448
"CR 76 A 53 35 CONJUNTO DE USO MIXTO JARDIN DE COLORES MEDELLIN , Colombia",6.26475999423525,-75.5900800393848
"CR 27 AA 36 SUR 151 URBANIZACION NATIVO FLORA PH ENVIGADO , Colombia",6.15846977376368,-75.5740508376596
"CR 71 A 51 A 57 ED PLAZA ESCORIAL L 1 MEDELLIN , Colombia",6.26060998824454,-75.5871000213488
"CL 73 73 A 60 EDIFICIO AVENIDA DEL CERRO PH MEDELLIN , Colombia",6.27283000679353,-75.5853600220687
"CR 47 20 SUR 108 EDIFICIO MULTIFAMILIAR CAMELOT PH ENVIGADO , Colombia",6.18516272828725,-75.58238331342
"CL 26 43 59 CONJUNTO RESIDENCIAL MADERA FINA PH BELLO , Colombia",6.31535652207476,-75.5610047184871
"CR 89 37 87 EDIFICIO PLENITUD MEDELLIN , Colombia",6.24837646402392,-75.6107813735409
"CL 39 SUR 25 B - 130  URB REFUGIO DE VILLA VERDE ENVIGADO , Colombia",6.15442848099016,-75.5751993399627
"CR 76 53 89 URBANIZACION  PARQUE DE COLORES MEDELLIN , Colombia",6.26482998312676,-75.5898900216398
"CR 53 25 32 URBANIZACION OPORTO CIUDADELA PH BELLO , Colombia",6.31493482292658,-75.5595164975776
"CR 83 A 48 BB 81 URBANIZACION TORREMONTANA MEDELLIN , Colombia",6.26178000000004,-75.60249
"CR 76 A 53 35 APTO 1611 C U M JARDIN DE COLORES MEDELLIN , Colombia",6.26475999423525,-75.5900800393848
"CL 37 B SUR 27 E 90 LA ALQUERIA DE SAN ISIDRO PH ENVIGADO , Colombia",6.16359417467074,-75.5778718128661
"CR 87 B 35 54 UNIDAD RESIDENCIAL ABADIA DEL  PARQUE PH MEDELLIN , Colombia",6.24441637140026,-75.6123022547365
"CR 72 B 78 B 85 APTO 1303 URBANIZACION SENDEROS DEL PALMAR MEDELLIN , Colombia",6.27915000369732,-75.581609958588
"CL 77 SUR 35 A 71 URB MADEROS DEL CAMPO II SABANETA , Colombia",6.14321566640414,-75.6187965104599
"CL 34 C 88 B 55 CONJUNTO RESIDENCIAL PLAZA CAMPESTRE MEDELLIN , Colombia",6.24306000000007,-75.6155699999999
"CR 59 70 349 CONJUNTO RESIDENCIAL CIUDADELA DEL VALLE ITAGUI , Colombia",6.17288000000002,-75.61148
"CL 81 52 D 160 CONJUNTO RESIDENCIAL LA HORTENSIA II ITAGUI , Colombia",6.19139000000007,-75.5959999999999
"CL 27 D SUR 27 C 15 URBANIZACION CUMBRES DEL BOSQUE PH ENVIGADO , Colombia",6.17188310678976,-75.5709266574844
"CR 74 53 - 55 APTO 807 URB NUEVO MUNDO MEDELLIN , Colombia",6.26354000822806,-75.5884699596038
"CL 29 B 54 B 39 ITAGUI , Colombia",6.16282094316772,-75.6262151271426
"CL 45 A SUR 39 B 101 CONJUNTO RESIDENCIAL PARQUES DE LA GLORIA ENVIGADO , Colombia",6.16065716748099,-75.5907139058331
"CR 44 26 71 CONJUNTO RESIDENCIAL MADERA ESENCIAL PH BELLO , Colombia",6.20542000000006,-75.56718
"CR 41 57 SUR 01  URB CANELA SABANETA , Colombia",6.15542085685947,-75.6055213709552
